FMT, 128, 89, FMT, BBnNZ, Type,Length,Name,Format,Columns
FMT, 118, 44, FMTU, QBNN, TimeUS,FmtType,UnitIds,MultIds
FMT, 163, 54, IMU, QBffffffIIfBBHH, TimeUS,I,GyrX,GyrY,GyrZ,AccX,AccY,AccZ,EG,EA,T,GH,AH,GHz,AHz
IMU, 9142543, 0, 0.04784273, 7.387649E-05, 0.002925964, 9.216684, 0.02621181, -3.35326, 0, 0, 25.1083, 1, 1, 999, 999
IMU, 9142543, 1, 0.0478579, -0.0001544419, 0.003061007, 9.218434, 0.02752, -3.35474, 0, 0, 25.10824, 1, 1, 759, 799
FMT, 59, 75, MSG, QZ, TimeUS,Message
MSG, 9142543, Throttle failsafe off
FMT, 72, 36, ATT, QffffffB, TimeUS,DesRoll,Roll,DesPitch,Pitch,DesYaw,Yaw,AEKF
ATT, 9142543, 0, 1.710423, 0, 69.9998, 0, 0.005642753, 0
FMT, 105, 52, PIDR, QffffffffffB, TimeUS,Tar,Act,Err,P,I,D,FF,DFF,Dmod,SRate,Flags
PIDR, 9142543, 0, 0, 0, 0, 0, 0, 0, 0, 0, 0, 0
FMT, 106, 52, PIDP, QffffffffffB, TimeUS,Tar,Act,Err,P,I,D,FF,DFF,Dmod,SRate,Flags
PIDP, 9142543, 0, 0, 0, 0, 0, 0, 0, 0, 0, 0, 0
FMT, 107, 52, PIDY, QffffffffffB, TimeUS,Tar,Act,Err,P,I,D,FF,DFF,Dmod,SRate,Flags
PIDY, 9142543, 0, 0, 0, 0, 0, 0, 0, 0, 0, 0, 0
FMT, 77, 45, SIM, QccCfLLffff, TimeUS,Roll,Pitch,Yaw,Alt,Lat,Lng,Q1,Q2,Q3,Q4
SIM, 9142543, 0.38, -19.99, 178.98, 584.85, -35.3632649, 149.1652374, 0.008115954, 0.1736613, 0.001769275, 0.9847704
FMT, 0, 48, CTUN, QccccffffBffi, TimeUS,NavRoll,Roll,NavPitch,Pitch,ThO,RdO,ThD,As,AsT,SAs,E2T,GU
CTUN, 9142543, 0, 1.71, 0, 69.99, 0, 0, 0, 0, 2, 0, 0.999996, 0
FMT, 166, 28, VIBE, QBfffI, TimeUS,IMU,VibeX,VibeY,VibeZ,Clip
VIBE, 9142543, 0, 0.003691733, 0.04375869, 0.1369213, 0
VIBE, 9142543, 1, 0.005940862, 0.04437952, 0.1384869, 0
FMT, 119, 76, UNIT, QbZ, TimeUS,Id,Label
FMT, 120, 20, MULT, Qbd, TimeUS,Id,Mult
FMT, 32, 35, PARM, QNff, TimeUS,Name,Value,Default
FMT, 94, 51, GPS, QBBIHBcLLeffffB, TimeUS,I,Status,GMS,GWk,NSats,HDop,Lat,Lng,Alt,Spd,GCrs,VZ,Yaw,U
FMT, 95, 39, GPA, QBCCCCfBIHeHH, TimeUS,I,VDop,HAcc,VAcc,SAcc,YAcc,VV,SMS,Delta,AEl,RTCMFU,RTCMFD
FMT, 99, 22, UBX1, QBHBBHI, TimeUS,Instance,noisePerMS,jamInd,aPower,agcCnt,config
FMT, 100, 16, UBX2, QBbBbB, TimeUS,Instance,ofsI,magI,ofsQ,magQ
FMT, 96, 42, GRAW, QIHBBddfBbB, TimeUS,WkMS,Week,numSV,sv,cpMes,prMes,doMes,mesQI,cno,lli
FMT, 97, 24, GRXH, QdHbBB, TimeUS,rcvTime,week,leapS,numMeas,recStat
FMT, 98, 41, GRXS, QddfBBBHBBBBB, TimeUS,prMes,cpMes,doMes,gnss,sv,freq,lock,cno,prD,cpD,doD,trk
FMT, 101, 23, SBPH, QIII, TimeUS,CrcError,LastInject,IARhyp
FMT, 102, 67, SBRH, QQQQQQQQ, TimeUS,msg_flag,1,2,3,4,5,6
FMT, 103, 123, SBRM, QQQQQQQQQQQQQQQ, TimeUS,msg_flag,1,2,3,4,5,6,7,8,9,10,11,12,13
FMT, 104, 23, SBRE, QHIiBB, TimeUS,GWk,GMS,ns_residual,level,quality
FMT, 60, 39, RCIN, QHHHHHHHHHHHHHH, TimeUS,C1,C2,C3,C4,C5,C6,C7,C8,C9,C10,C11,C12,C13,C14
FMT, 61, 18, RCI2, QHHHB, TimeUS,C15,C16,OMask,Flags
FMT, 62, 39, RCOU, QHHHHHHHHHHHHHH, TimeUS,C1,C2,C3,C4,C5,C6,C7,C8,C9,C10,C11,C12,C13,C14
FMT, 207, 19, RCO2, QHHHH, TimeUS,C15,C16,C17,C18
FMT, 208, 39, RCO3, QHHHHHHHHHHHHHH, TimeUS,C19,C20,C21,C22,C23,C24,C25,C26,C27,C28,C29,C30,C31,C32
FMT, 63, 19, RSSI, Qff, TimeUS,RXRSSI,RXLQ
FMT, 64, 43, BARO, QBfffcfIffB, TimeUS,I,Alt,AltAMSL,Press,Temp,CRt,SMS,Offset,GndTemp,Health
FMT, 65, 24, BARD, QBfff, TimeUS,I,DynPrX,DynPrY,DynPrZ
FMT, 66, 25, CANF, QBIBBBBBBBBB, TimeUS,Bus,Id,DLC,B0,B1,B2,B3,B4,B5,B6,B7
FMT, 67, 81, CAFD, QBIBQQQQQQQQ, TimeUS,Bus,Id,DLC,D0,D1,D2,D3,D4,D5,D6,D7
FMT, 196, 50, PL, QBBfffffffIIB, TimeUS,Heal,TAcq,pX,pY,vX,vY,mX,mY,mZ,LastMeasMS,EKFOutl,Est
FMT, 68, 24, POWR, QffHHB, TimeUS,Vcc,VServo,Flags,AccFlags,Safety
FMT, 69, 27, MCU, Qffff, TimeUS,MTemp,MVolt,MVmin,MVmax
FMT, 93, 46, CMD, QHHHffffLLfB, TimeUS,CTot,CNum,CId,Prm1,Prm2,Prm3,Prm4,Lat,Lng,Alt,Frame
FMT, 92, 46, MISE, QHHHffffLLfB, TimeUS,CTot,CNum,CId,Prm1,Prm2,Prm3,Prm4,Lat,Lng,Alt,Frame
FMT, 78, 48, MAVC, QBBBBBHffffiifBB, TimeUS,TS,TC,SS,SC,Fr,Cmd,P1,P2,P3,P4,X,Y,Z,Res,WL
FMT, 79, 20, RAD, QBBBBBHH, TimeUS,RSSI,RemRSSI,TxBuf,Noise,RemNoise,RxErrors,Fixed
FMT, 81, 46, CAM, QBHIHLLeeeccC, TimeUS,I,Img,GPSTime,GPSWeek,Lat,Lng,Alt,RelAlt,GPSAlt,R,P,Y
FMT, 82, 46, TRIG, QBHIHLLeeeccC, TimeUS,I,Img,GPSTime,GPSWeek,Lat,Lng,Alt,RelAlt,GPSAlt,R,P,Y
FMT, 83, 48, MNT, QBfffffffff, TimeUS,I,DRoll,Roll,DPitch,Pitch,DYawB,YawB,DYawE,YawE,Dist
FMT, 114, 41, ARSP, QBffcffBBffB, TimeUS,I,Airspeed,DiffPress,Temp,RawPress,Offset,U,H,Hp,TR,Pri
FMT, 88, 41, BAT, QBfffffcfBBB, TimeUS,Inst,Volt,VoltR,Curr,CurrTot,EnrgTot,Temp,Res,RemPct,H,SH
FMT, 89, 40, BCL, QBfHHHHHHHHHHHH, TimeUS,Instance,Volt,V1,V2,V3,V4,V5,V6,V7,V8,V9,V10,V11,V12
FMT, 113, 35, MAG, QBhhhhhhhhhBI, TimeUS,I,MagX,MagY,MagZ,OfsX,OfsY,OfsZ,MOX,MOY,MOZ,Health,S
FMT, 122, 14, MODE, QMBB, TimeUS,Mode,ModeNum,Rsn
FMT, 116, 17, RFND, QBCBBb, TimeUS,Instance,Dist,Stat,Orient,Quality
FMT, 117, 36, DMS, QIIIIBBBBBBBBB, TimeUS,N,Dp,RT,RS,Fa,Fmn,Fmx,Pa,Pmn,Pmx,Sa,Smn,Smx
FMT, 174, 41, BCN, QBBfffffff, TimeUS,Health,Cnt,D0,D1,D2,D3,PosX,PosY,PosZ
FMT, 175, 57, PRX, QBBfffffffffff, TimeUS,Layer,He,D0,D45,D90,D135,D180,D225,D270,D315,DUp,CAn,CDis
FMT, 176, 44, PRXR, QBffffffff, TimeUS,Layer,D0,D45,D90,D135,D180,D225,D270,D315
FMT, 179, 61, PM, QHHHIIHHIIIIIIQ, TimeUS,LR,NLon,NL,MaxT,Mem,Load,ErrL,InE,ErC,SPIC,I2CC,I2CI,Ex,R
FMT, 178, 29, SRTL, QBHHBfff, TimeUS,Active,NumPts,MaxPts,Action,N,E,D
FMT, 170, 48, OABR, QBBHHHBfLLiLLi, TimeUS,Type,Act,DYaw,Yaw,DP,RChg,Mar,DLt,DLg,DAlt,OLt,OLg,OAlt
FMT, 171, 31, OADJ, QBBBBLLLL, TimeUS,State,Err,CurrPoint,TotPoints,DLat,DLng,OALat,OALng
FMT, 172, 37, SA, QBffffffB, TimeUS,State,DVelX,DVelY,DVelZ,MVelX,MVelY,MVelZ,Back
FMT, 173, 21, OAVG, QBBLL, TimeUS,version,point_num,Lat,Lon
FMT, 84, 38, TERR, QBLLHffHHf, TimeUS,Status,Lat,Lng,Spacing,TerrH,CHeight,Pending,Loaded,ROfs
FMT, 86, 40, ESC, QBffffcfcf, TimeUS,Instance,RPM,RawRPM,Volt,Curr,Temp,CTot,MotTemp,Err
FMT, 87, 15, EDT2, QBBBB, TimeUS,Instance,Stress,MaxStress,Status
FMT, 85, 46, CSRV, QBfffBfffffB, TimeUS,Id,Pos,Force,Speed,Pow,PosCmd,V,A,MotT,PCBT,Err
FMT, 108, 52, PIDA, QffffffffffB, TimeUS,Tar,Act,Err,P,I,D,FF,DFF,Dmod,SRate,Flags
FMT, 109, 52, PIDS, QffffffffffB, TimeUS,Tar,Act,Err,P,I,D,FF,DFF,Dmod,SRate,Flags
FMT, 110, 52, PIDN, QffffffffffB, TimeUS,Tar,Act,Err,P,I,D,FF,DFF,Dmod,SRate,Flags
FMT, 111, 52, PIDE, QffffffffffB, TimeUS,Tar,Act,Err,P,I,D,FF,DFF,Dmod,SRate,Flags
FMT, 161, 32, ACC, QBQfff, TimeUS,I,SampleUS,AccX,AccY,AccZ
FMT, 162, 32, GYR, QBQfff, TimeUS,I,SampleUS,GyrX,GyrY,GyrZ
FMT, 164, 31, ISBH, QHBBHHQf, TimeUS,N,type,instance,mul,smp_cnt,SampleUS,smp_rate
FMT, 165, 207, ISBD, QHHaaa, TimeUS,N,seqno,x,y,z
FMT, 129, 15, RFRH, QI, TimeUS,TF
FMT, 130, 5, RFRF, BB, FTypes,Slow
FMT, 138, 38, RFRN, IIIfIfffBBB, HLat,HLon,HAlt,E2T,AM,TX,TY,TZ,VC,EKT,Flags
FMT, 131, 4, REV2, B, Event
FMT, 132, 15, RSO2, III, Lat,Lon,Alt
FMT, 133, 11, RWA2, ff, Airspeed,uncertainty
FMT, 134, 4, REV3, B, Event
FMT, 135, 15, RSO3, III, Lat,Lon,Alt
FMT, 136, 11, RWA3, ff, Airspeed,Uncertainty
FMT, 137, 16, REY3, ffIB, yawangle,yawangleerr,timestamp_ms,type
FMT, 139, 13, RISH, HBBfBB, LR,PG,PA,LD,AC,GC
FMT, 140, 37, RISI, ffffffffBB, DVX,DVY,DVZ,DAX,DAY,DAZ,DVDT,DADT,Flags,I
FMT, 148, 5, RASH, BB, Primary,NumInst
FMT, 149, 14, RASI, fIBBB, pd,UpdateMS,H,Use,I
FMT, 141, 5, RBRH, BB, Primary,NumInst
FMT, 142, 13, RBRI, IfBB, LastUpdate,Alt,H,I
FMT, 143, 8, RRNH, hhB, GCl,MaxD,NumSensors
FMT, 144, 20, RRNI, fffHBBB, PX,PY,PZ,Dist,Orient,Status,I
FMT, 145, 5, RGPH, BB, NumInst,Primary
FMT, 146, 23, RGPI, ffffBBBB, OX,OY,OZ,Lg,Flags,Stat,NSats,I
FMT, 147, 58, RGPJ, IffffffIiiiffHB, TS,VX,VY,VZ,SA,Y,YA,YT,Lat,Lon,Alt,HA,VA,HD,I
FMT, 153, 14, RMGH, fBBBBBBB, Dec,Avail,NumInst,AutoDec,NumEna,LOE,C,FUsable
FMT, 154, 35, RMGI, IffffffBBBB, LU,OX,OY,OZ,FX,FY,FZ,UFY,H,HSF,I
FMT, 150, 33, RBCH, ffffiiiBB, PX,PY,PZ,AE,OLat,OLng,OAlt,Flags,NumInst
FMT, 151, 25, RBCI, IffffBB, LU,PX,PY,PZ,Dist,H,I
FMT, 152, 21, RVOH, fffIBB, OX,OY,OZ,Del,H,Ena
FMT, 155, 40, ROFH, ffffIffffB, FX,FY,GX,GY,Tms,PX,PY,PZ,HgtOvr,Qual
FMT, 156, 49, REPH, fffffffffIIH, PX,PY,PZ,Q1,Q2,Q3,Q4,PEr,AEr,TS,RT,D
FMT, 157, 19, RSLL, IIfI, Lat,Lng,PosAccSD,TS
FMT, 158, 25, REVH, ffffIH, VX,VY,VZ,Er,TS,D
FMT, 159, 31, RWOH, ffIffff, DA,DT,TS,PX,PY,PZ,R
FMT, 160, 53, RBOH, ffffffffIfffH, Q,DPX,DPY,DPZ,DAX,DAY,DAZ,DT,TS,OX,OY,OZ,D
FMT, 33, 37, NKF0, QBBccCCcccccccc, TimeUS,C,ID,rng,innov,SIV,TR,BPN,BPE,BPD,OFH,OFL,OFN,OFE,OFD
FMT, 34, 56, NKF1, QBccCfffffffccce, TimeUS,C,Roll,Pitch,Yaw,VN,VE,VD,dPD,PN,PE,PD,GX,GY,GZ,OH
FMT, 35, 36, NKF2, QBbccccchhhhhhB, TimeUS,C,AZbias,GSX,GSY,GSZ,VWN,VWE,MN,ME,MD,MX,MY,MZ,MI
FMT, 36, 42, NKF3, QBcccccchhhccff, TimeUS,C,IVN,IVE,IVD,IPN,IPE,IPD,IMX,IMY,IMZ,IYAW,IVT,RErr,ErSc
FMT, 37, 44, NKF4, QBcccccfffHBIHb, TimeUS,C,SV,SP,SH,SM,SVT,errRP,OFN,OFE,FS,TS,SS,GPS,PI
FMT, 38, 41, NKF5, QBBhhhcccCCfff, TimeUS,C,NI,FIX,FIY,AFI,HAGL,offset,RI,rng,Herr,eAng,eVel,ePos
FMT, 39, 28, NKQ, QBffff, TimeUS,C,Q1,Q2,Q3,Q4
FMT, 40, 48, NKT, QBIffffffff, TimeUS,C,Cnt,IMUMin,IMUMax,EKFMin,EKFMax,AngMin,AngMax,VMin,VMax
FMT, 43, 37, XKF0, QBBccCCcccccccc, TimeUS,C,ID,rng,innov,SIV,TR,BPN,BPE,BPD,OFH,OFL,OFN,OFE,OFD
FMT, 44, 56, XKF1, QBccCfffffffccce, TimeUS,C,Roll,Pitch,Yaw,VN,VE,VD,dPD,PN,PE,PD,GX,GY,GZ,OH
FMT, 45, 46, XKF2, QBccccchhhhhhfff, TimeUS,C,AX,AY,AZ,VWN,VWE,MN,ME,MD,MX,MY,MZ,IDX,IDY,IS
FMT, 46, 42, XKF3, QBcccccchhhccff, TimeUS,C,IVN,IVE,IVD,IPN,IPE,IPD,IMX,IMY,IMZ,IYAW,IVT,RErr,ErSc
FMT, 47, 44, XKF4, QBcccccfffHBIHb, TimeUS,C,SV,SP,SH,SM,SVT,errRP,OFN,OFE,FS,TS,SS,GPS,PI
FMT, 48, 41, XKF5, QBBhhhcccCCfff, TimeUS,C,NI,FIX,FIY,AFI,HAGL,offset,RI,rng,Herr,eAng,eVel,ePos
FMT, 49, 36, XKFD, QBffffff, TimeUS,C,IX,IY,IZ,IVX,IVY,IVZ
FMT, 50, 29, XKFM, QBBffff, TimeUS,C,OGNM,GLR,ALR,GDR,ADR
FMT, 51, 20, XKFS, QBBBBBBBBB, TimeUS,C,MI,BI,GI,AI,SS,GPS_GTA,GPS_CHK_WAIT,MAG_FUSION
FMT, 52, 28, XKQ, QBffff, TimeUS,C,Q1,Q2,Q3,Q4
FMT, 53, 48, XKT, QBIffffffff, TimeUS,C,Cnt,IMUMin,IMUMax,EKFMin,EKFMax,AngMin,AngMax,VMin,VMax
FMT, 54, 20, XKTV, QBff, TimeUS,C,TVS,TVD
FMT, 55, 60, XKV1, QBffffffffffff, TimeUS,C,V00,V01,V02,V03,V04,V05,V06,V07,V08,V09,V10,V11
FMT, 56, 60, XKV2, QBffffffffffff, TimeUS,C,V12,V13,V14,V15,V16,V17,V18,V19,V20,V21,V22,V23
FMT, 57, 60, XKY0, QBffffffffffff, TimeUS,C,YC,YCS,Y0,Y1,Y2,Y3,Y4,W0,W1,W2,W3,W4
FMT, 58, 52, XKY1, QBffffffffff, TimeUS,C,IVN0,IVN1,IVN2,IVN3,IVN4,IVE0,IVE1,IVE2,IVE3,IVE4
FMT, 41, 60, NKY0, QBffffffffffff, TimeUS,C,YC,YCS,Y0,Y1,Y2,Y3,Y4,W0,W1,W2,W3,W4
FMT, 42, 52, NKY1, QBffffffffff, TimeUS,C,IVN0,IVN1,IVN2,IVN3,IVN4,IVE0,IVE1,IVE2,IVE3,IVE4
FMT, 70, 45, AHR2, QccCfLLffff, TimeUS,Roll,Pitch,Yaw,Alt,Lat,Lng,Q1,Q2,Q3,Q4
FMT, 71, 19, AOA, Qff, TimeUS,AOA,SSA
FMT, 73, 24, ORGN, QBLLe, TimeUS,Type,Lat,Lng,Alt
FMT, 74, 31, POS, QLLfff, TimeUS,Lat,Lng,Alt,RelHomeAlt,RelOriginAlt
FMT, 76, 35, ATSC, Qffffff, TimeUS,AngPScX,AngPScY,AngPScZ,PDScX,PDScY,PDScZ
FMT, 204, 51, VSTB, Qffffffffff, TimeUS,GyrX,GyrY,GyrZ,AccX,AccY,AccZ,Q1,Q2,Q3,Q4
FMT, 90, 38, MON, QIbIHHHHHII, TimeUS,Dly,Tsk,IErr,IErrCnt,IErrLn,MM,MC,SmLn,SPICnt,I2CCnt
FMT, 91, 47, WDOG, QbIHHHHHHHIBIIn, TimeUS,Tsk,IE,IEC,IEL,MvMsg,MvCmd,SmLn,FL,FT,FA,FP,ICSR,LR,TN
FMT, 210, 20, UART, QBff, TimeUS,I,Tx,Rx
FMT, 115, 21, RPM, QBffB, TimeUS,I,RPM,Qual,H
FMT, 209, 27, FNCE, QBBBLLBf, TimeUS,Tot,Seq,Type,Lat,Lng,Count,Radius
FMT, 177, 33, DSF, QIHIIII, TimeUS,Dp,Blk,Bytes,FMn,FMx,FAv
FMT, 121, 24, RALY, QBBLLhB, TimeUS,Tot,Seq,Lat,Lng,Alt,Flags
FMT, 183, 23, MAV, QBHHHBHH, TimeUS,chan,txp,rxp,rxdp,flags,ss,tf
FMT, 167, 43, VISO, Qffffffff, TimeUS,dt,AngDX,AngDY,AngDZ,PosDX,PosDY,PosDZ,conf
FMT, 168, 58, VISP, QQIffffffffBBb, TimeUS,RTimeUS,CTimeMS,PX,PY,PZ,R,P,Y,PErr,AErr,Rst,Ign,Q
FMT, 169, 42, VISV, QQIffffBBb, TimeUS,RTimeUS,CTimeMS,VX,VY,VZ,VErr,Rst,Ign,Q
FMT, 180, 28, OF, QBffff, TimeUS,Qual,flowX,flowY,bodyX,bodyY
FMT, 182, 21, WENC, Qfbfb, TimeUS,Dist0,Qual0,Dist1,Qual1
FMT, 185, 35, ADSB, QIiiiHHhH, TimeUS,ICAO_address,Lat,Lng,Alt,Heading,Hor_vel,Ver_vel,Squark
FMT, 181, 12, EV, QB, TimeUS,Id
FMT, 186, 18, ARM, QBIBB, TimeUS,ArmState,ArmChecks,Forced,Method
FMT, 184, 13, ERR, QBB, TimeUS,Subsys,ECode
FMT, 187, 35, WINC, QBBBBBfffHfb, TimeUS,Heal,ThEnd,Mov,Clut,Mode,DLen,Len,DRate,Tens,Vcc,Temp
FMT, 188, 47, PSCN, Qfffffffff, TimeUS,DPN,TPN,PN,DVN,TVN,VN,DAN,TAN,AN
FMT, 189, 47, PSCE, Qfffffffff, TimeUS,DPE,TPE,PE,DVE,TVE,VE,DAE,TAE,AE
FMT, 190, 47, PSCD, Qfffffffff, TimeUS,DPD,TPD,PD,DVD,TVD,VD,DAD,TAD,AD
FMT, 191, 35, PSON, Qffffff, TimeUS,TPON,PON,TVON,VON,TAON,AON
FMT, 192, 35, PSOE, Qffffff, TimeUS,TPOE,POE,TVOE,VOE,TAOE,AOE
FMT, 193, 35, PSOD, Qffffff, TimeUS,TPOD,POD,TVOD,VOD,TAOD,AOD
FMT, 194, 35, PSOT, Qffffff, TimeUS,TPOT,POT,TVOT,VOT,TAOT,AOT
FMT, 75, 63, RATE, Qfffffffffffff, TimeUS,RDes,R,ROut,PDes,P,POut,YDes,Y,YOut,ADes,A,AOut,AOutSlew
FMT, 195, 39, ANG, Qfffffff, TimeUS,DesRoll,Roll,DesPitch,Pitch,DesYaw,Yaw,Dt
FMT, 201, 33, STAK, QBBHHN, TimeUS,Id,Pri,Total,Free,Name
FMT, 202, 88, FILE, NIBZ, FileName,Offset,Length,Data
FMT, 197, 78, AISR, QBBBZ, TimeUS,num,total,ID,payload
FMT, 198, 41, AIS1, QBBIBbHbLLHHBBbI, US,typ,rep,mmsi,nav,rot,sog,pos,lon,lat,cog,hed,sec,man,raim,rad
FMT, 199, 38, AIS4, QBIHBBBBBBLLBBI, US,rep,mmsi,year,mth,day,h,m,s,fix,lon,lat,epfd,raim,rad
FMT, 200, 175, AIS5, QBIBINZBHHBBBBZB, US,rep,mmsi,ver,imo,cal,nam,typ,bow,stn,prt,str,fix,dght,dst,dte
FMT, 203, 39, SCR, QNIii, TimeUS,Name,Runtime,Total_mem,Run_mem
FMT, 206, 90, VER, QBHBBBBIZHBB, TimeUS,BT,BST,Maj,Min,Pat,FWT,GH,FWS,APJ,BU,FV
FMT, 205, 32, MOTB, QfffffB, TimeUS,LiftMax,BatVolt,ThLimit,ThrAvMx,ThrOut,FailFlags
FMT, 80, 54, ATRP, QBBffffffffBff, TimeUS,Axis,State,Sur,PSlew,DSlew,FF0,FF,P,I,D,Action,RMAX,TAU
FMT, 1, 22, STAT, QBfBBBBBB, TimeUS,isFlying,isFlyProb,Armed,Safety,Crash,Still,Stage,Hit
FMT, 7, 52, PIDG, QffffffffffB, TimeUS,Tar,Act,Err,P,I,D,FF,DFF,Dmod,SRate,Flags
FMT, 8, 39, AETR, Qfffffff, TimeUS,Ail,Elev,Thr,Rudd,Flap,Steer,SS
FMT, 12, 29, SEEK, QffBBQ, TimeUS,AngX,AngY,Conf,Valid,TUS
FMT, 13, 29, FSTG, QBBIIII, TimeUS,Stg,PStg,BstS,BstC,StgE,DDly
MSG, 9142543, TheRocket V4.6.1 (93e7bd15 61d0d0fe)
VER, 9142543, 3, 65535, 4, 6, 1, 255, 2481437973, TheRocket V4.6.1 (93e7bd15 61d0d0fe), 0, 14, 2
MSG, 9142543, rcmkc-mba.local
MSG, 9142543, Param space used: 125/3840
MSG, 9142543, RC Protocol: SITL
MODE, 9142543, 26, 26, 26
FMT, 250, 59, SIM2, QdddfffffI, TimeUS,PN,PE,PD,VN,VE,VD,As,ASpdU,UFC
SIM2, 9142543, -0.314057809335641, -0.000559620663685585, -0.8598330757426, -0.0001171955, -0.002887088, 4.596153E-05, 9.986624E-05, 0.999001, 0
FILE, @SYS/uarts.txt, 0, 64, UARTV1\nSERIAL0 TX=   21703 RX=     176 TXBD= 23763 RXBD=   192 c
FILE, load_parameters., 0, 64, local file = io.open("scripts/test.parm", "r")\n\nif not file then
FILE, @SYS/uarts.txt, 64, 64, onnected     (tcp:0:wait)\nSERIAL1 TX=       0 RX=       0 TXBD= 
FILE, load_parameters., 64, 64, \n    file = io.open("APM/scripts/test.parm", "r")\nend\n\nif not fi
IMU, 9162543, 0, 0.07493698, -6.342199E-05, 0.004515319, 9.216866, -0.07150398, -3.354654, 0, 0, 25.10963, 1, 1, 999, 999
IMU, 9162543, 1, 0.07528672, -8.645985E-05, 0.004629625, 9.217773, -0.06511242, -3.354155, 0, 0, 25.10957, 1, 1, 759, 799
ATT, 9162543, 0, 1.808378, 0, 69.9996, 0, 0.02040358, 0
PIDR, 9162543, 0, 0, 0, 0, 0, 0, 0, 0, 0, 0, 0
PIDP, 9162543, 0, 0, 0, 0, 0, 0, 0, 0, 0, 0, 0
PIDY, 9162543, 0, 0, 0, 0, 0, 0, 0, 0, 0, 0, 0
SIM, 9162543, 0.41, -19.99, 178.89, 584.85, -35.3632649, 149.1652374, 0.00882188, 0.1736626, 0.001936575, 0.9847638
SIM2, 9162543, -0.314060351337583, -0.000612134970109428, -0.859832197226193, -0.0001123107, -0.002268545, 3.861492E-05, 9.98138E-05, 0.999001, 0
FILE, @SYS/uarts.txt, 128, 64,     0 RXBD=     0 not connected (tcp:2)\nSERIAL2 TX=       0 RX= 
FILE, load_parameters., 128, 64, le then\n    gcs:send_text(6, "load_parameters.lua: failed to ope
IMU, 9182543, 0, 0.05818911, -0.0001087364, 0.003500817, 9.217821, -0.1053463, -3.356177, 0, 0, 25.11096, 1, 1, 999, 999
IMU, 9182543, 1, 0.05868465, 6.745862E-05, 0.003552369, 9.218332, -0.1060694, -3.356861, 0, 0, 25.11089, 1, 1, 759, 799
ATT, 9182543, 0, 1.881295, 0, 69.99933, 0, 0.03003998, 0
PIDR, 9182543, 0, 0, 0, 0, 0, 0, 0, 0, 0, 0, 0
PIDP, 9182543, 0, 0, 0, 0, 0, 0, 0, 0, 0, 0, 0
PIDY, 9182543, 0, 0, 0, 0, 0, 0, 0, 0, 0, 0, 0
SIM, 9182543, 0.44, -19.99, 178.83, 584.85, -35.3632649, 149.1652374, 0.009353845, 0.1736637, 0.002062635, 0.9847584
CTUN, 9182543, 0, 1.88, 0, 69.99, 0, 0, 0, 0, 2, 0, 0.999996, 0
VIBE, 9182543, 0, 0.003484653, 0.05320277, 0.10669, 0
VIBE, 9182543, 1, 0.0054907, 0.05364309, 0.1080262, 0
SIM2, 9182543, -0.314062324650527, -0.000651604351596935, -0.85983151809405, -8.604117E-05, -0.001704184, 2.963711E-05, 7.491751E-05, 0.999001, 0
FILE, @SYS/uarts.txt, 192, 64,       0 TXBD=     0 RXBD=     0 not connected (tcp:3)\nSERIAL3 TX
FILE, load_parameters., 192, 64, n test.parm")\n    return\nend\n\nlocal content = file:read("*a")\nfi
FILE, @SYS/uarts.txt, 256, 64, =     162 RX=       0 TXBD=   177 RXBD=     0 connected     (GPS
FILE, load_parameters., 256, 64, le:close()\n\nlocal pid = io.open("scripts/pid_gains.parm", "r")\n\n
IMU, 9202543, 0, 0.04079385, -3.740795E-05, 0.002488465, 9.216975, -0.1047279, -3.356765, 0, 0, 25.11228, 1, 1, 999, 999
IMU, 9202543, 1, 0.04040701, -9.378704E-05, 0.002459721, 9.217185, -0.1042166, -3.356944, 0, 0, 25.11222, 1, 1, 759, 799
BARO, 9202543, 0, 0.1411743, 0.1411743, 94492.31, 26.64, 0.0491416, 9202, 0, 26.60929, 1
BARO, 9202543, 1, -0.211792, -0.211792, 94496.42, 26.64, 0.0491416, 9202, 0, 26.60929, 1
ATT, 9202543, 0, 1.932876, 0, 69.99918, 0, 0.03653069, 0
PIDR, 9202543, 0, 0, 0, 0, 0, 0, 0, 0, 0, 0, 0
PIDP, 9202543, 0, 0, 0, 0, 0, 0, 0, 0, 0, 0, 0
PIDY, 9202543, 0, 0, 0, 0, 0, 0, 0, 0, 0, 0, 0
SIM, 9202543, 0.46, -19.99, 178.78, 584.85, -35.3632649, 149.1652374, 0.009729618, 0.1736644, 0.002151681, 0.9847545
AOA, 9202543, 0, 0
STAT, 9202543, 0, 0, 1, 2, 0, 1, 1, 0
SIM2, 9202543, -0.314063728228682, -0.000679267525348658, -0.859831035120694, -5.548428E-05, -0.00108954, 1.905339E-05, 4.746027E-05, 0.999001, 0
FILE, @SYS/uarts.txt, 320, 64, 1)\nSERIAL4 TX=       0 RX=       0 TXBD=     0 RXBD=     0 conne
FILE, load_parameters., 320, 64, if not pid then\n    pid = io.open("APM/scripts/pid_gains.parm", 
FILE, @SYS/uarts.txt, 384, 64, cted     (GPS2)\nSERIAL5 TX=       0 RX=       0 TXBD=     0 RXBD
FILE, load_parameters., 384, 64, "r")\nend\n\nif not pid then\n    gcs:send_text(6, "load_parameters.
FMT, 252, 43, DCM, Qffffffff, TimeUS,Roll,Pitch,Yaw,ErrRP,ErrYaw,VWN,VWE,VWD
DCM, 9222543, 1.962179, 69.99911, 0.03981959, 0.8005251, 1, 0, 0, 0
FMT, 251, 51, EAHR, QffffffLLfI, TimeUS,Roll,Pitch,Yaw,VN,VE,VD,Lat,Lon,Alt,Flg
EAHR, 9222543, 0, 0, 0, 0, 0, 0, 0, 0, 0, 0
IMU, 9222543, 0, 0.02409641, 3.786579E-05, 0.001528911, 9.216469, -0.108224, -3.357604, 0, 0, 25.11361, 1, 1, 999, 999
IMU, 9222543, 1, 0.02394548, 3.633578E-05, 0.001452427, 9.215357, -0.1072042, -3.35722, 0, 0, 25.11354, 1, 1, 759, 799
ATT, 9222543, 0, 1.962179, 0, 69.99911, 0, 0.03981959, 0
PIDR, 9222543, 0, 0, 0, 0, 0, 0, 0, 0, 0, 0, 0
PIDP, 9222543, 0, 0, 0, 0, 0, 0, 0, 0, 0, 0, 0
PIDY, 9222543, 0, 0, 0, 0, 0, 0, 0, 0, 0, 0, 0
SIM, 9222543, 0.47, -19.99, 178.75, 584.85, -35.3632649, 149.1652374, 0.009940679, 0.1736648, 0.002201695, 0.9847522
CTUN, 9222543, 0, 1.96, 0, 69.99, 0, 0, 0, 0, 2, 0, 1.000007, 0
VIBE, 9222543, 0, 0.003388984, 0.04405928, 0.08312743, 0
VIBE, 9222543, 1, 0.005768694, 0.04459999, 0.08427902, 0
SIM2, 9222543, -0.314064502953815, -0.000694527775667732, -0.859830770787683, -2.343447E-05, -0.0004675168, 7.875641E-06, 1.953162E-05, 0.999001, 0
FILE, @SYS/uarts.txt, 448, 64, =     0 not connected (tcp:5)\nSERIAL6 TX=       0 RX=       0 TX
FILE, load_parameters., 448, 64, lua: failed to open pid_gains.parm")\n    return\nend\n\nlocal pid_c
IMU, 9242543, 0, 0.007202509, 0.0001090699, 0.0005100225, 9.216038, -0.1092065, -3.357395, 0, 0, 25.11493, 1, 1, 999, 999
IMU, 9242543, 1, 0.007251498, 4.702725E-05, 0.0005205209, 9.216225, -0.1067252, -3.356711, 0, 0, 25.11487, 1, 1, 759, 799
ATT, 9242543, 0, 1.968875, 0, 69.99921, 0, 0.03968404, 0
PIDR, 9242543, 0, 0, 0, 0, 0, 0, 0, 0, 0, 0, 0
PIDP, 9242543, 0, 0, 0, 0, 0, 0, 0, 0, 0, 0, 0
PIDY, 9242543, 0, 0, 0, 0, 0, 0, 0, 0, 0, 0, 0
SIM, 9242543, 0.47, -19.99, 178.75, 584.85, -35.3632649, 149.1652374, 0.009986433, 0.1736649, 0.002212537, 0.9847517
SIM2, 9242543, -0.314064630668264, -0.000697348811977634, -0.859830732529186, 9.081339E-06, 0.0001542964, -3.499712E-06, 0, 0.999001, 0
FILE, @SYS/uarts.txt, 512, 64, BD=     0 RXBD=     0 not connected (tcp:6)\nSERIAL7 TX=       0 
FILE, load_parameters., 512, 64, ontent = pid:read("*a")\npid:close()\n\ncontent = content .. "\\n" .
FILE, @SYS/uarts.txt, 576, 64, RX=       0 TXBD=     0 RXBD=     0 not connected (tcp:7)\nSERIAL
FILE, load_parameters., 576, 64, . pid_content\n\nfor line in content:gmatch("[^\\r\\n]+") do\n    loc
IMU, 9262543, 0, -0.009825578, 0.0002062207, -0.0004435009, 9.215761, -0.1083993, -3.357303, 0, 0, 25.11626, 1, 1, 999, 999
IMU, 9262543, 1, -0.009341936, 5.025897E-05, -0.0003647063, 9.214598, -0.1092643, -3.359825, 0, 0, 25.11619, 1, 1, 759, 799
ATT, 9262543, 0, 1.953103, 0, 69.99941, 0, 0.03636413, 0
PIDR, 9262543, 0, 0, 0, 0, 0, 0, 0, 0, 0, 0, 0
PIDP, 9262543, 0, 0, 0, 0, 0, 0, 0, 0, 0, 0, 0
PIDY, 9262543, 0, 0, 0, 0, 0, 0, 0, 0, 0, 0, 0
SIM, 9262543, 0.47, -19.99, 178.76, 584.85, -35.3632649, 149.1652374, 0.009866873, 0.1736646, 0.002184205, 0.984753
CTUN, 9262543, 0, 1.95, 0, 69.99, 0, 0, 0, 0, 2, 0, 1.000007, 0
VIBE, 9262543, 0, 0.003236524, 0.03469488, 0.06478667, 0
VIBE, 9262543, 1, 0.005377416, 0.03534644, 0.06576438, 0
SIM2, 9262543, -0.314064107583388, -0.000687729495398448, -0.859830922018782, 4.152362E-05, 0.0007767728, -1.484888E-05, 0, 0.999001, 0
FILE, @SYS/uarts.txt, 640, 64, 8 TX=       0 RX=       0 TXBD=     0 RXBD=     0 not connected 
FILE, load_parameters., 640, 64, al param, value = line:match("^(%S+)%s+(%S+)$")\n    local p = Pa
FILE, @SYS/uarts.txt, 704, 8, (tcp:8)\n
FILE, load_parameters., 704, 64, rameter()\n    p:init(param)\n    if p and value then\n        loca
IMU, 9282543, 0, -0.02677644, 0.0002347238, -0.00143479, 9.215572, -0.107378, -3.3572, 0, 0, 25.11759, 1, 1, 999, 999
IMU, 9282543, 1, -0.02603598, 0.000103342, -0.00137106, 9.217632, -0.1101432, -3.35828, 0, 0, 25.11752, 1, 1, 759, 799
ATT, 9282543, 0, 1.914797, 0, 69.99972, 0, 0.02975837, 0
PIDR, 9282543, 0, 0, 0, 0, 0, 0, 0, 0, 0, 0, 0
PIDP, 9282543, 0, 0, 0, 0, 0, 0, 0, 0, 0, 0, 0
PIDY, 9282543, 0, 0, 0, 0, 0, 0, 0, 0, 0, 0, 0
SIM, 9282543, 0.45, -19.99, 178.8, 584.85, -35.3632649, 149.1652374, 0.009581598, 0.173664, 0.002116604, 0.9847561
SIM2, 9282543, -0.314062941146454, -0.000665637133950022, -0.859831336258092, 7.332808E-05, 0.001401808, -2.59367E-05, 0, 0.999001, 0
FILE, load_parameters., 768, 64, l num_value = tonumber(value)\n        if num_value then\n        
IMU, 9302543, 0, -0.04389234, 0.0002736459, -0.002421077, 9.217416, -0.1044046, -3.356131, 0, 0, 25.11891, 1, 1, 999, 999
IMU, 9302543, 1, -0.04420042, 0.0003352479, -0.002364877, 9.217364, -0.1034704, -3.356323, 0, 0, 25.11884, 1, 1, 759, 799
BARO, 9302543, 0, -0.0647583, -0.0647583, 94494.64, 26.65, -0.2499001, 9302, 0, 26.60929, 1
BARO, 9302543, 1, 0.02935791, 0.02935791, 94493.68, 26.65, -0.2499001, 9302, 0, 26.60929, 1
ATT, 9302543, 0, 1.853648, 0, 70.0001, 0, 0.01972656, 0
PIDR, 9302543, 0, 0, 0, 0, 0, 0, 0, 0, 0, 0, 0
PIDP, 9302543, 0, 0, 0, 0, 0, 0, 0, 0, 0, 0, 0
PIDY, 9302543, 0, 0, 0, 0, 0, 0, 0, 0, 0, 0, 0
SIM, 9302543, 0.43, -19.99, 178.86, 584.85, -35.3632649, 149.1652374, 0.00912969, 0.1736631, 0.002009515, 0.9847608
AOA, 9302543, 0, 0
CTUN, 9302543, 0, 1.85, 0, 70, 0, 0, 0, 0, 2, 0, 1.000007, 0
VIBE, 9302543, 0, 0.003108003, 0.02710764, 0.05049666, 0
VIBE, 9302543, 1, 0.005422812, 0.02779119, 0.05136939, 0
STAT, 9302543, 0, 0, 1, 2, 0, 1, 1, 0
SIM2, 9302543, -0.314061149416558, -0.000630999409030889, -0.859831967800154, 0.0001039496, 0.002031425, -3.653496E-05, 0, 0.999001, 0
FILE, load_parameters., 832, 64,     if not (p:set(num_value)) then\n                gcs:send_text
FILE, load_parameters., 896, 64, (6, string.format("load_parameters.lua: failed to set %s", param
DCM, 9322543, 1.769574, 70.00058, 0.006369654, 0.8005251, 1, 0, 0, 0
EAHR, 9322543, 0, 0, 0, 0, 0, 0, 0, 0, 0, 0
IMU, 9322543, 0, -0.0611526, 0.0003210733, -0.003458225, 9.215999, -0.1000275, -3.35747, 0, 0, 25.12024, 1, 1, 999, 999
IMU, 9322543, 1, -0.06137837, 0.0004508322, -0.003409745, 9.216745, -0.1036659, -3.357074, 0, 0, 25.12017, 1, 1, 759, 799
ATT, 9322543, 0, 1.769574, 0, 70.00058, 0, 0.006369654, 0
PIDR, 9322543, 0, 0, 0, 0, 0, 0, 0, 0, 0, 0, 0
PIDP, 9322543, 0, 0, 0, 0, 0, 0, 0, 0, 0, 0, 0
PIDY, 9322543, 0, 0, 0, 0, 0, 0, 0, 0, 0, 0, 0
SIM, 9322543, 0.4, -19.99, 178.93, 584.85, -35.3632649, 149.1652374, 0.008509703, 0.1736618, 0.001862594, 0.9847668
SIM2, 9322543, -0.314058761669729, -0.000583703271625374, -0.859832804507433, 0.0001328236, 0.002667667, -4.64074E-05, 0, 0.999001, 0
FILE, load_parameters., 960, 64, ))\n            else\n                local new_value = p:get()\n  
IMU, 9342543, 0, -0.07314051, 0.0003545657, -0.004129461, 9.217099, -0.05037164, -3.35533, 0, 0, 25.12156, 1, 1, 999, 999
IMU, 9342543, 1, -0.07295518, 0.0003942775, -0.00421289, 9.215913, -0.0493606, -3.352032, 0, 0, 25.1215, 1, 1, 759, 799
ATT, 9342543, 0, 1.673154, 0, 70.0011, 0, 359.9912, 0
PIDR, 9342543, 0, 0, 0, 0, 0, 0, 0, 0, 0, 0, 0
PIDP, 9342543, 0, 0, 0, 0, 0, 0, 0, 0, 0, 0, 0
PIDY, 9342543, 0, 0, 0, 0, 0, 0, 0, 0, 0, 0, 0
SIM, 9342543, 0.36, -19.99, 179.02, 584.85, -35.3632649, 149.1652374, 0.007823847, 0.1736612, 0.001700006, 0.9847729
CTUN, 9342543, 0, 1.67, 0, 70, 0, 0, 0, 0, 2, 0, 0.999997, 0
VIBE, 9342543, 0, 0.00292766, 0.04187166, 0.039455, 0
VIBE, 9342543, 1, 0.005828125, 0.04371433, 0.04041299, 0
SIM2, 9342543, -0.3140564754831, -0.000532845711489637, -0.859833653628293, 7.74776E-05, 0.001889165, -3.041594E-05, 0, 0.999001, 0
FILE, load_parameters., 1024, 64,               gcs:send_text(6, string.format("load_parameters.lu
FILE, @SYS/storage.bin, 0, 64, PA\x06\x00\x00\x02\x00\x00\r\x00\x01??\x03\x01\x00?\x01\x13\x00\x00!?\x07\x00\x04\x01*\x00!C\x08\x00\x04\x02*\x00!?\x07\x00\x0C\x01*\x00!?\x08\x00\x0C\x02*\x00?D\x01\x00\x00\x00\x00\x00n\x02
FILE, load_parameters., 1088, 64, a: set %s to %s", param, new_value))\n            end\n        end
IMU, 9362543, 0, -0.03767466, 0.0001673598, -0.00208121, 9.217443, 0.02931484, -3.35303, 0, 0, 25.12289, 1, 1, 999, 999
IMU, 9362543, 1, -0.03883933, 0.0001153069, -0.00225544, 9.216576, 0.03260071, -3.352399, 0, 0, 25.12282, 1, 1, 759, 799
ATT, 9362543, 0, 1.628626, 0, 70.00131, 0, 359.9836, 0
PIDR, 9362543, 0, 0, 0, 0, 0, 0, 0, 0, 0, 0, 0
PIDP, 9362543, 0, 0, 0, 0, 0, 0, 0, 0, 0, 0, 0
PIDY, 9362543, 0, 0, 0, 0, 0, 0, 0, 0, 0, 0, 0
SIM, 9362543, 0.35, -19.99, 179.05, 584.85, -35.3632649, 149.1652374, 0.00753942, 0.1736612, 0.001632557, 0.9847752
SIM2, 9362543, -0.314055669814494, -0.000513147016268215, -0.859833969946492, 7.057397E-06, 0.0001672684, -2.777049E-06, 0, 0.999001, 0
FILE, @SYS/storage.bin, 64, 64, \x04\x00nB\x00\x00\x04\x00n?\x00\x00\x04\x00n?\x00\x00\x04\x00n\x02\x01\x00\x04\x00nB\x01\x00\x04\x00n?\x01\x00\x04\x00n?\x01\x00\x04\x00??\x00\x00???G?D\x02\x00\x02??G???
FILE, load_parameters., 1152, 64, \n    end\nend\n\nnotify:play_tune('L64 C E G')\n\ngcs:send_text(6, "l
FILE, load_parameters., 1216, 27, oad_parameters.lua: done!")
IMU, 9382543, 0, 0.01143319, 0.0001138212, 0.0007811328, 9.217129, 0.03066159, -3.354655, 0, 0, 25.12421, 1, 1, 999, 999
IMU, 9382543, 1, 0.009622537, 0.0001138866, 0.0007061149, 9.216595, 0.03207179, -3.356409, 0, 0, 25.12415, 1, 1, 759, 799
ATT, 9382543, 0, 1.64638, 0, 70.00136, 0, 359.9852, 0
PIDR, 9382543, 0, 0, 0, 0, 0, 0, 0, 0, 0, 0, 0
PIDP, 9382543, 0, 0, 0, 0, 0, 0, 0, 0, 0, 0, 0
PIDY, 9382543, 0, 0, 0, 0, 0, 0, 0, 0, 0, 0, 0
SIM, 9382543, 0.36, -19.99, 179.03, 584.85, -35.3632649, 149.1652374, 0.007712108, 0.1736612, 0.001673508, 0.9847739
CTUN, 9382543, 0, 1.64, 0, 70, 0, 0, 0, 0, 2, 0, 0.999997, 0
VIBE, 9382543, 0, 0.002829011, 0.04741431, 0.03079235, 0
VIBE, 9382543, 1, 0.005359731, 0.04851716, 0.03171148, 0
SIM2, 9382543, -0.314056260089401, -0.000527873862369066, -0.859833738474169, -6.297836E-05, -0.001554213, 2.471187E-05, 5.53418E-05, 0.999001, 0
IMU, 9402543, 0, 0.05845839, 7.05392E-05, 0.003481253, 9.216608, 0.02077786, -3.353078, 0, 0, 25.12554, 1, 1, 999, 999
IMU, 9402543, 1, 0.05889874, -2.050723E-05, 0.003576997, 9.217076, 0.02132719, -3.356847, 0, 0, 25.12547, 1, 1, 759, 799
BARO, 9402543, 0, 0.1499634, 0.1499634, 94492.2, 26.67, -0.2203404, 9402, 0, 26.60929, 1
BARO, 9402543, 1, -0.01763916, -0.01763916, 94494.2, 26.67, -0.2203404, 9402, 0, 26.60929, 1
ATT, 9402543, 0, 1.725651, 0, 70.00127, 0, 359.9957, 0
PIDR, 9402543, 0, 0, 0, 0, 0, 0, 0, 0, 0, 0, 0
PIDP, 9402543, 0, 0, 0, 0, 0, 0, 0, 0, 0, 0, 0
PIDY, 9402543, 0, 0, 0, 0, 0, 0, 0, 0, 0, 0, 0
SIM, 9402543, 0.39, -19.99, 178.96, 584.85, -35.3632649, 149.1652374, 0.008326571, 0.1736614, 0.001819197, 0.9847685
AOA, 9402543, 0, 0
STAT, 9402543, 0, 0, 1, 2, 0, 1, 1, 0
SIM2, 9402543, -0.31405831713605, -0.000575271240969782, -0.85983296241569, -0.0001325707, -0.002683426, 4.59017E-05, 0.0001212982, 0.999001, 0
FILE, test_mission.lua, 0, 64, local file = io.open("scripts/config", "r")\n\nif not file then\n  
FILE, test_mission.lua, 64, 64,   file = io.open("APM/scripts/config", "r")\n    if not file then
DCM, 9422543, 1.812425, 70.00101, 0.007459419, 0.6409451, 1, 0, 0, 0
EAHR, 9422543, 0, 0, 0, 0, 0, 0, 0, 0, 0, 0
IMU, 9422543, 0, 0.06950948, -8.795461E-05, 0.004191404, 9.21644, -0.09037098, -3.355095, 0, 0, 25.12686, 1, 1, 999, 999
IMU, 9422543, 1, 0.06936867, -0.0001431391, 0.004303187, 9.217625, -0.08911391, -3.355773, 0, 0, 25.1268, 1, 1, 759, 799
ATT, 9422543, 0, 1.812425, 0, 70.00101, 0, 0.007459419, 0
PIDR, 9422543, 0, 0, 0, 0, 0, 0, 0, 0, 0, 0, 0
PIDP, 9422543, 0, 0, 0, 0, 0, 0, 0, 0, 0, 0, 0
PIDY, 9422543, 0, 0, 0, 0, 0, 0, 0, 0, 0, 0, 0
SIM, 9422543, 0.42, -19.99, 178.88, 584.85, -35.3632649, 149.1652374, 0.008959001, 0.1736628, 0.001969067, 0.9847624
CTUN, 9422543, 0, 1.81, 0, 70, 0, 0, 0, 0, 2, 0, 1.000007, 0
VIBE, 9422543, 0, 0.002930454, 0.05392089, 0.02411099, 0
VIBE, 9422543, 1, 0.00512627, 0.05465083, 0.02490325, 0
SIM2, 9422543, -0.314060666077147, -0.00062223062997019, -0.859832147664417, -0.0001036377, -0.002045609, 3.601494E-05, 9.266087E-05, 0.999001, 0
FILE, test_mission.lua, 128, 64, \n        gcs:send_text(6, "test_mission.lua: failed to load conf
FILE, test_mission.lua, 192, 64, ig")\n        return\n    end\nend\n\nlocal content = file:read("*a")
IMU, 9442543, 0, 0.05052541, -0.0002780972, 0.003119684, 9.217793, -0.1071498, -3.374095, 0, 0, 25.12819, 1, 1, 999, 999
IMU, 9442543, 1, 0.05063957, -0.0003895414, 0.003129205, 9.223222, -0.109137, -3.666641, 0, 0, 25.12812, 1, 1, 759, 799
ATT, 9442543, 0, 1.876109, 0, 70.00053, 0, 0.01585948, 0
PIDR, 9442543, 0, 0, 0, 0, 0, 0, 0, 0, 0, 0, 0
PIDP, 9442543, 0, 0, 0, 0, 0, 0, 0, 0, 0, 0, 0
PIDY, 9442543, 0, 0, 0, 0, 0, 0, 0, 0, 0, 0, 0
SIM, 9442543, 0.44, -19.99, 178.82, 584.85, -35.3632649, 149.1652374, 0.009421575, 0.1736659, 0.002078742, 0.9847574
SIM2, 9442543, -0.314066318075818, -0.000656477037130932, -0.859830037217126, -3.353489E-05, -0.00141501, 1.022219E-05, 9.860008E-06, 0.999001, 0
FILE, test_mission.lua, 256, 64, \nfile:close()\n\nlocal name = content:match("NAME%s+(%S+)")\nlocal 
IMU, 9462543, 0, 0.03264178, 6.85518E-05, 0.002031245, 9.216697, -0.1062492, -3.360205, 0, 0, 25.12951, 1, 1, 999, 999
IMU, 9462543, 1, 0.03309365, 4.659617E-05, 0.002062078, 9.218462, -0.1059102, -3.364117, 0, 0, 25.12945, 1, 1, 759, 799
ATT, 9462543, 0, 1.916934, 0, 70.00051, 0, 0.02084791, 0
PIDR, 9462543, 0, 0, 0, 0, 0, 0, 0, 0, 0, 0, 0
PIDP, 9462543, 0, 0, 0, 0, 0, 0, 0, 0, 0, 0, 0
PIDY, 9462543, 0, 0, 0, 0, 0, 0, 0, 0, 0, 0, 0
SIM, 9462543, 0.46, -19.99, 178.78, 584.85, -35.3632649, 149.1652374, 0.009718451, 0.1736661, 0.002149088, 0.9847543
CTUN, 9462543, 0, 1.91, 0, 70, 0, 0, 0, 0, 2, 0, 1.000007, 0
VIBE, 9462543, 0, 0.01173129, 0.04758676, 0.6239476, 0
VIBE, 9462543, 1, 0.01204602, 0.04845055, 0.6099599, 0
FILE, test_mission.lua, 320, 64, roll_command = tonumber(content:match("ROLL%s+([-%d]+)")) or 0\nl
SIM2, 9462543, -0.314066732709467, -0.00067818960783605, -0.859829919245074, -8.82351E-06, -0.0007881845, 1.858694E-06, 0, 0.999001, 0
FILE, test_mission.lua, 384, 64, ocal pitch_command = tonumber(content:match("PITCH%s+([-%d]+)"))
IMU, 9482543, 0, 0.01580724, 9.890054E-05, 0.00102873, 9.216856, -0.1074023, -3.355372, 0, 0, 25.13084, 1, 1, 999, 999
IMU, 9482543, 1, 0.0165803, 5.987599E-05, 0.00108347, 9.214743, -0.1081158, -3.349314, 0, 0, 25.13077, 1, 1, 759, 799
MAVC, 9482543, 1, 0, 255, 230, 3, 410, 0, 0, 0, 0, 0, 0, 0, 4, 1
ATT, 9482543, 0, 1.935142, 0, 70.00053, 0, 0.02243508, 0
PIDR, 9482543, 0, 0, 0, 0, 0, 0, 0, 0, 0, 0, 0
PIDP, 9482543, 0, 0, 0, 0, 0, 0, 0, 0, 0, 0, 0
PIDY, 9482543, 0, 0, 0, 0, 0, 0, 0, 0, 0, 0, 0
SIM, 9482543, 0.47, -19.99, 178.77, 584.85, -35.3632649, 149.1652374, 0.009849099, 0.173666, 0.002180044, 0.984753
SIM2, 9482543, -0.314066631653119, -0.000687396191378362, -0.859829977071168, 1.784682E-05, -0.0001639461, -7.283063E-06, 0, 0.999001, 0
FILE, test_mission.lua, 448, 64,  or 0\nlocal yaw_command = tonumber(content:match("YAW%s+([-%d]+)
FILE, test_mission.lua, 512, 64, ")) or 0\nlocal command_altitude_m = tonumber(content:match("ALT%
IMU, 9502543, 0, -0.001112442, 0.0001651656, 8.626314E-05, 9.215694, -0.107674, -3.356807, 0, 0, 25.13216, 1, 1, 999, 999
IMU, 9502543, 1, -0.001281429, 0.0001022924, 0.0001109494, 9.214352, -0.1070089, -3.355251, 0, 0, 25.1321, 1, 1, 759, 799
BARO, 9502543, 0, -0.1647339, -0.1647339, 94495.78, 26.68, -0.0861598, 9502, 0, 26.60929, 1
BARO, 9502543, 1, 0.01470947, 0.01470947, 94493.84, 26.68, -0.0861598, 9502, 0, 26.60929, 1
ATT, 9502543, 0, 1.930994, 0, 70.00072, 0, 0.02089358, 0
PIDR, 9502543, 0, 0, 0, 0, 0, 0, 0, 0, 0, 0, 0
PIDP, 9502543, 0, 0, 0, 0, 0, 0, 0, 0, 0, 0, 0
PIDY, 9502543, 0, 0, 0, 0, 0, 0, 0, 0, 0, 0, 0
SIM, 9502543, 0.46, -19.99, 178.77, 584.85, -35.3632649, 149.1652374, 0.009813946, 0.1736657, 0.002171711, 0.9847534
AOA, 9502543, 0, 0
CTUN, 9502543, 0, 1.93, 0, 70, 0, 0, 0, 0, 2, 0, 1.000007, 0
VIBE, 9502543, 0, 0.009319805, 0.03780578, 0.486051, 0
VIBE, 9502543, 1, 0.01007246, 0.03854701, 0.4769695, 0
STAT, 9502543, 0, 0, 1, 2, 0, 0, 1, 0
SIM2, 9502543, -0.314065983420287, -0.000684127156748047, -0.859830223129782, 4.570769E-05, 0.0004597439, -1.688986E-05, 0, 0.999001, 0
FILE, test_mission.lua, 576, 64, s+([%d]+)")) or 1000\nlocal command_duration_ms = (tonumber(conte
DCM, 9522543, 1.904122, 70.00099, 0.01593974, 0.6409451, 1, 0, 0, 0
EAHR, 9522543, 0, 0, 0, 0, 0, 0, 0, 0, 0, 0
IMU, 9522543, 0, -0.01815144, 0.0002530701, -0.0009088063, 9.215887, -0.108137, -3.35679, 0, 0, 25.13349, 1, 1, 999, 999
IMU, 9522543, 1, -0.01810068, 0.0002057532, -0.000969907, 9.216631, -0.1064037, -3.35696, 0, 0, 25.13342, 1, 1, 759, 799
ATT, 9522543, 0, 1.904122, 0, 70.00099, 0, 0.01593974, 0
PIDR, 9522543, 0, 0, 0, 0, 0, 0, 0, 0, 0, 0, 0
PIDP, 9522543, 0, 0, 0, 0, 0, 0, 0, 0, 0, 0, 0
PIDY, 9522543, 0, 0, 0, 0, 0, 0, 0, 0, 0, 0, 0
SIM, 9522543, 0.45, -19.99, 178.8, 584.85, -35.3632649, 149.1652374, 0.009612883, 0.1736651, 0.002124063, 0.9847556
SIM2, 9522543, -0.314064771690829, -0.000668372078290131, -0.85983066366843, 7.404005E-05, 0.001084925, -2.666745E-05, 0, 0.999001, 0
FILE, test_mission.lua, 640, 64, nt:match("TIME%s+([%d]+)")) or 0) * 1000\n\nlocal end_time\nlocal t
FILE, test_mission.lua, 704, 64, est_string = ""\n\ntest_string = test_string .. roll_command ~= 0 
IMU, 9542543, 0, -0.03528584, 0.0002809729, -0.001910434, 9.216361, -0.1054857, -3.357479, 0, 0, 25.13481, 1, 1, 999, 999
IMU, 9542543, 1, -0.03513927, 0.00032577, -0.001926776, 9.218018, -0.1042076, -3.3566, 0, 0, 25.13474, 1, 1, 759, 799
ATT, 9542543, 0, 1.854554, 0, 70.00137, 0, 0.007738622, 0
PIDR, 9542543, 0, 0, 0, 0, 0, 0, 0, 0, 0, 0, 0
PIDP, 9542543, 0, 0, 0, 0, 0, 0, 0, 0, 0, 0, 0
PIDY, 9542543, 0, 0, 0, 0, 0, 0, 0, 0, 0, 0, 0
SIM, 9542543, 0.44, -19.99, 178.84, 584.85, -35.3632649, 149.1652374, 0.00924527, 0.1736642, 0.002036948, 0.9847594
CTUN, 9542543, 0, 1.85, 0, 70, 0, 0, 0, 0, 2, 0, 0.9999922, 0
VIBE, 9542543, 0, 0.007436642, 0.02953641, 0.3786305, 0
VIBE, 9542543, 1, 0.008790473, 0.03029076, 0.3719646, 0
SIM2, 9542543, -0.314062993948699, -0.00064007971922368, -0.859831299269317, 0.0001021758, 0.001713639, -3.634092E-05, 0, 0.999001, 0
FILE, test_mission.lua, 768, 64, and roll_command .." Roll " or ""\ntest_string = test_string .. p
FILE, test_mission.lua, 832, 64, itch_command ~= 0 and pitch_command .. " Pitch " or ""\ntest_stri
IMU, 9562543, 0, -0.05241665, 0.0003119993, -0.002861569, 9.216617, -0.1027423, -3.356723, 0, 0, 25.13614, 1, 1, 999, 999
IMU, 9562543, 1, -0.05188202, 0.0004232637, -0.002788024, 9.217192, -0.1032132, -3.355497, 0, 0, 25.13607, 1, 1, 759, 799
MAV, 9562543, 0, 318, 9, 0, 6, 0, 0
MAV, 9562543, 1, 0, 0, 0, 4, 0, 98
ATT, 9562543, 0, 1.782299, 0, 70.00179, 0, 359.9963, 0
PIDR, 9562543, 0, 0, 0, 0, 0, 0, 0, 0, 0, 0, 0
PIDP, 9562543, 0, 0, 0, 0, 0, 0, 0, 0, 0, 0, 0
PIDY, 9562543, 0, 0, 0, 0, 0, 0, 0, 0, 0, 0, 0
SIM, 9562543, 0.41, -19.99, 178.91, 584.85, -35.3632649, 149.1652374, 0.008709936, 0.1736629, 0.001910087, 0.9847648
SIM2, 9562543, -0.314060661592203, -0.000599157926439708, -0.859832124799774, 0.0001293568, 0.002347938, -4.560022E-05, 0, 0.999001, 0
FILE, test_mission.lua, 896, 64, ng = test_string .. yaw_command ~= 0 and yaw_command .." Yaw " o
IMU, 9582543, 0, -0.06956638, 0.0003673474, -0.003942143, 9.217887, -0.09206919, -3.356475, 0, 0, 25.13746, 1, 1, 999, 999
IMU, 9582543, 1, -0.07001745, 0.0003233542, -0.00390874, 9.219232, -0.09342699, -3.356289, 0, 0, 25.13739, 1, 1, 759, 799
ATT, 9582543, 0, 1.687685, 0, 70.00233, 0, 359.9814, 0
PIDR, 9582543, 0, 0, 0, 0, 0, 0, 0, 0, 0, 0, 0
PIDP, 9582543, 0, 0, 0, 0, 0, 0, 0, 0, 0, 0, 0
PIDY, 9582543, 0, 0, 0, 0, 0, 0, 0, 0, 0, 0, 0
SIM, 9582543, 0.37, -19.99, 178.99, 584.85, -35.3632649, 149.1652374, 0.008021005, 0.1736616, 0.001746804, 0.9847712
CTUN, 9582543, 0, 1.68, 0, 70, 0, 0, 0, 0, 2, 0, 0.9999922, 0
VIBE, 9582543, 0, 0.006199479, 0.03229431, 0.2949636, 0
VIBE, 9582543, 1, 0.007619874, 0.03003324, 0.289996, 0
SIM2, 9582543, -0.314057982325545, -0.000547252415045055, -0.859833091074092, 0.0001083186, 0.002396908, -4.267616E-05, 0, 0.999001, 0
FILE, test_mission.lua, 960, 64, r ""\ntest_string = test_string .. "for " .. command_duration_ms/
FILE, test_mission.lua, 1024, 64, 1e3 .. "s at " .. command_altitude_m .. "m"\ntest_string = "<TEST
IMU, 9602543, 0, -0.05132113, 0.0001625033, -0.002839829, 9.21699, 0.01889818, -3.353714, 0, 0, 25.13878, 1, 1, 999, 999
IMU, 9602543, 1, -0.05099945, 8.733613E-05, -0.00313371, 9.218161, 0.01669452, -3.351229, 0, 0, 25.13872, 1, 1, 759, 799
BARO, 9602543, 0, -0.05584717, -0.05584717, 94494.55, 26.7, -0.1282524, 9602, 0, 26.60929, 1
BARO, 9602543, 1, -0.182373, -0.182373, 94496.08, 26.7, -0.1282524, 9602, 0, 26.60929, 1
ATT, 9602543, 0, 1.62497, 0, 70.00257, 0, 359.9712, 0
PIDR, 9602543, 0, 0, 0, 0, 0, 0, 0, 0, 0, 0, 0
PIDP, 9602543, 0, 0, 0, 0, 0, 0, 0, 0, 0, 0, 0
PIDY, 9602543, 0, 0, 0, 0, 0, 0, 0, 0, 0, 0, 0
SIM, 9602543, 0.35, -19.99, 179.05, 584.85, -35.3632649, 149.1652374, 0.007601916, 0.1736616, 0.001647421, 0.9847746
AOA, 9602543, 0, 0
STAT, 9602543, 0, 0, 1, 2, 0, 0, 1, 0
SIM2, 9602543, -0.314056591667513, -0.000517414170304547, -0.859833639729331, 3.508379E-05, 0.0006737577, -1.389855E-05, 0, 0.999001, 0
FILE, test_mission.lua, 1088, 64, > " .. name .. " will command " .. test_string\n\ngcs:send_text(6,
DCM, 9622543, 1.624033, 70.00266, 359.9698, 0.5134243, 1, 0, 0, 0
EAHR, 9622543, 0, 0, 0, 0, 0, 0, 0, 0, 0, 0
IMU, 9622543, 0, -0.002963269, 0.0001294198, 1.673747E-05, 9.216714, 0.03143978, -3.352965, 0, 0, 25.14011, 1, 1, 999, 999
IMU, 9622543, 1, -0.003210769, -3.044442E-05, -0.0002786125, 9.217027, 0.03231352, -3.355257, 0, 0, 25.14004, 1, 1, 759, 799
ATT, 9622543, 0, 1.624033, 0, 70.00266, 0, 359.9698, 0
PIDR, 9622543, 0, 0, 0, 0, 0, 0, 0, 0, 0, 0, 0
PIDP, 9622543, 0, 0, 0, 0, 0, 0, 0, 0, 0, 0, 0
PIDY, 9622543, 0, 0, 0, 0, 0, 0, 0, 0, 0, 0, 0
SIM, 9622543, 0.36, -19.99, 179.04, 584.85, -35.3632649, 149.1652374, 0.007640116, 0.1736615, 0.001656479, 0.9847743
CTUN, 9622543, 0, 1.62, 0, 70, 0, 0, 0, 0, 2, 0, 0.9999974, 0
VIBE, 9622543, 0, 0.005168058, 0.04882746, 0.229781, 0
VIBE, 9622543, 1, 0.006829777, 0.04883572, 0.2260777, 0
SIM2, 9622543, -0.314056635688776, -0.000522012328749657, -0.859833624910988, -3.601528E-05, -0.001047602, 1.401989E-05, 2.858916E-05, 0.999001, 0
FILE, test_mission.lua, 1152, 64,  test_string)\n\n\nlocal function send_ground_attitude_target(r, p,
FILE, test_mission.lua, 1216, 64,  y)\n    local theta = -ahrs:get_roll()\n    local cos_t = math.co
IMU, 9642543, 0, 0.04463612, 0.0001191243, 0.002752709, 9.216819, 0.0260418, -3.352422, 0, 0, 25.14143, 1, 1, 999, 999
IMU, 9642543, 1, 0.04371459, 1.719499E-05, 0.002795337, 9.216515, 0.02701268, -3.354386, 0, 0, 25.14137, 1, 1, 759, 799
ATT, 9642543, 0, 1.685363, 0, 70.00264, 0, 359.9775, 0
PIDR, 9642543, 0, 0, 0, 0, 0, 0, 0, 0, 0, 0, 0
PIDP, 9642543, 0, 0, 0, 0, 0, 0, 0, 0, 0, 0, 0
PIDY, 9642543, 0, 0, 0, 0, 0, 0, 0, 0, 0, 0, 0
SIM, 9642543, 0.38, -19.99, 178.98, 584.85, -35.3632649, 149.1652374, 0.008135736, 0.1736614, 0.001774008, 0.9847702
SIM2, 9642543, -0.314058122597327, -0.00056106150932577, -0.859833043210141, -0.0001100132, -0.002772008, 4.312137E-05, 9.227576E-05, 0.999001, 0
FILE, test_mission.lua, 1280, 64, s(theta)\n    local sin_t = math.sin(theta)\n    local p_new = cos
FILE, test_mission.lua, 1344, 64, _t * p - sin_t * y\n    local y_new = sin_t * p + cos_t * y\n    l
IMU, 9662543, 0, 0.06996446, -6.254083E-05, 0.004205766, 9.217498, -0.07089361, -3.354829, 0, 0, 25.14275, 1, 1, 999, 999
IMU, 9662543, 1, 0.07012101, -2.971127E-05, 0.004287869, 9.21761, -0.06925541, -3.356974, 0, 0, 25.14269, 1, 1, 759, 799
ATT, 9662543, 0, 1.774309, 0, 70.00237, 0, 359.9891, 0
PIDR, 9662543, 0, 0, 0, 0, 0, 0, 0, 0, 0, 0, 0
PIDP, 9662543, 0, 0, 0, 0, 0, 0, 0, 0, 0, 0, 0
PIDY, 9662543, 0, 0, 0, 0, 0, 0, 0, 0, 0, 0, 0
SIM, 9662543, 0.41, -19.99, 178.9, 584.85, -35.3632649, 149.1652374, 0.008790448, 0.1736626, 0.001929164, 0.9847641
CTUN, 9662543, 0, 1.77, 0, 70, 0, 0, 0, 0, 2, 0, 0.9999974, 0
VIBE, 9662543, 0, 0.004392048, 0.05328157, 0.1790178, 0
VIBE, 9662543, 1, 0.006405013, 0.05379399, 0.1762619, 0
SIM2, 9662543, -0.314060445807567, -0.000609694179102382, -0.859832241833234, -0.0001029164, -0.002128297, 3.557037E-05, 9.058218E-05, 0.999001, 0
FILE, test_mission.lua, 1408, 64, ocal q = Quaternion()\n    q:from_euler(math.rad(r), math.rad(p_n
IMU, 9682543, 0, 0.05346349, -4.57696E-05, 0.003226142, 9.217602, -0.1074107, -3.357317, 0, 0, 25.14408, 1, 1, 999, 999
IMU, 9682543, 1, 0.05307223, 8.883996E-05, 0.003278235, 9.216675, -0.1054741, -3.356302, 0, 0, 25.14401, 1, 1, 759, 799
ATT, 9682543, 0, 1.840493, 0, 70.0022, 0, 359.9974, 0
PIDR, 9682543, 0, 0, 0, 0, 0, 0, 0, 0, 0, 0, 0
PIDP, 9682543, 0, 0, 0, 0, 0, 0, 0, 0, 0, 0, 0
PIDY, 9682543, 0, 0, 0, 0, 0, 0, 0, 0, 0, 0, 0
SIM, 9682543, 0.44, -19.99, 178.84, 584.85, -35.3632649, 149.1652374, 0.009275997, 0.1736636, 0.002044226, 0.9847592
SIM2, 9682543, -0.314062194649161, -0.000645601884473824, -0.859831636901964, -7.326441E-05, -0.001495095, 2.535853E-05, 6.308046E-05, 0.999001, 0
FILE, test_mission.lua, 1472, 64, ew), math.rad(y_new))\n    vehicle:set_attitude_target(q:q1(), q:
FILE, test_mission.lua, 1536, 64, q2(), q:q3(), q:q4())\nend\n\n\nfunction update()\n    if vehicle:get
IMU, 9702543, 0, 0.03503013, 5.106008E-05, 0.002204693, 9.217329, -0.1059789, -3.356675, 0, 0, 25.1454, 1, 1, 999, 999
IMU, 9702543, 1, 0.03482318, -8.662487E-05, 0.002104794, 9.218199, -0.1052903, -3.355286, 0, 0, 25.14534, 1, 1, 759, 799
BARO, 9702543, 0, 0.1705322, 0.1705322, 94491.97, 26.71, -0.3319561, 9702, 0, 26.60929, 1
BARO, 9702543, 1, -0.1647339, -0.1647339, 94495.88, 26.71, -0.3319561, 9702, 0, 26.60929, 1
ATT, 9702543, 0, 1.883979, 0, 70.00211, 0, 0.002470562, 0
PIDR, 9702543, 0, 0, 0, 0, 0, 0, 0, 0, 0, 0, 0
PIDP, 9702543, 0, 0, 0, 0, 0, 0, 0, 0, 0, 0, 0
PIDY, 9702543, 0, 0, 0, 0, 0, 0, 0, 0, 0, 0, 0
SIM, 9702543, 0.45, -19.99, 178.8, 584.85, -35.3632649, 149.1652374, 0.00959394, 0.1736642, 0.002119568, 0.9847559
AOA, 9702543, 0, 0
CTUN, 9702543, 0, 1.88, 0, 70, 0, 0, 0, 0, 2, 0, 0.9999974, 0
VIBE, 9702543, 0, 0.003920643, 0.04811512, 0.1394635, 0
VIBE, 9702543, 1, 0.005853218, 0.04878509, 0.1374332, 0
STAT, 9702543, 0, 0, 1, 2, 0, 0, 1, 0
SIM2, 9702543, -0.314063334783452, -0.00066889972838619, -0.859831242699416, -4.218184E-05, -0.0008667418, 1.455188E-05, 3.544364E-05, 0.999001, 0
FILE, test_mission.lua, 1600, 64, _mode() ~= 15 then -- GUIDED\n        return update, 100\n    end\n
DCM, 9722543, 1.904895, 70.0021, 0.004334386, 0.5134243, 1, 0, 0, 0
EAHR, 9722543, 0, 0, 0, 0, 0, 0, 0, 0, 0, 0
IMU, 9722543, 0, 0.01795064, 7.114587E-05, 0.00123182, 9.216146, -0.1062699, -3.356464, 0, 0, 25.14673, 1, 1, 999, 999
IMU, 9722543, 1, 0.01792081, 0.0002534465, 0.001145246, 9.217894, -0.1045773, -3.357872, 0, 0, 25.14666, 1, 1, 759, 799
ATT, 9722543, 0, 1.904895, 0, 70.0021, 0, 0.004334386, 0
PIDR, 9722543, 0, 0, 0, 0, 0, 0, 0, 0, 0, 0, 0
PIDP, 9722543, 0, 0, 0, 0, 0, 0, 0, 0, 0, 0, 0
PIDY, 9722543, 0, 0, 0, 0, 0, 0, 0, 0, 0, 0, 0
SIM, 9722543, 0.46, -19.99, 178.78, 584.85, -35.3632649, 149.1652374, 0.009745291, 0.1736644, 0.002155433, 0.9847543
FILE, test_mission.lua, 1664, 64, \n    if (baro:get_altitude() < command_altitude_m) then\n        
SIM2, 9722543, -0.314063843972345, -0.000679663547115729, -0.859831068496577, -1.026546E-05, -0.0002412156, 3.397772E-06, 7.70658E-06, 0.999001, 0
FILE, test_mission.lua, 1728, 64, return update, 100\n    end\n\n    if (end_time == nil or end_time 
IMU, 9742543, 0, 0.0009321297, 0.0001334233, 0.0002079145, 9.217251, -0.1077513, -3.356778, 0, 0, 25.14805, 1, 1, 999, 999
IMU, 9742543, 1, 0.001188963, 0.0002270431, 0.0001855596, 9.217687, -0.1051289, -3.356917, 0, 0, 25.14798, 1, 1, 759, 799
ATT, 9742543, 0, 1.902968, 0, 70.00221, 0, 0.002713009, 0
PIDR, 9742543, 0, 0, 0, 0, 0, 0, 0, 0, 0, 0, 0
PIDP, 9742543, 0, 0, 0, 0, 0, 0, 0, 0, 0, 0, 0
PIDY, 9742543, 0, 0, 0, 0, 0, 0, 0, 0, 0, 0, 0
SIM, 9742543, 0.46, -19.99, 178.78, 584.85, -35.3632649, 149.1652374, 0.009730537, 0.1736644, 0.002151936, 0.9847544
CTUN, 9742543, 0, 1.9, 0, 70, 0, 0, 0, 0, 2, 0, 1.000008, 0
VIBE, 9742543, 0, 0.00347778, 0.03837052, 0.1086585, 0
VIBE, 9742543, 1, 0.005530372, 0.03904077, 0.1071889, 0
SIM2, 9742543, -0.314063711119774, -0.000677928491969289, -0.859831118923747, 2.195846E-05, 0.0003835226, -7.883679E-06, 0, 0.999001, 0
FILE, test_mission.lua, 1792, 64, <= 0) then\n        gcs:send_text(6, name .. " TEST ENGAGED")\n   
FILE, test_mission.lua, 1856, 64,      end_time = millis() + command_duration_ms\n    end\n\n    if (
IMU, 9762543, 0, -0.01607377, 0.0002051651, -0.0008329127, 9.218008, -0.1070525, -3.356838, 0, 0, 25.14937, 1, 1, 999, 999
IMU, 9762543, 1, -0.0154331, 0.0003283721, -0.0009254313, 9.216956, -0.1052234, -3.35773, 0, 0, 25.14931, 1, 1, 759, 799
ATT, 9762543, 0, 1.878326, 0, 70.00244, 0, 359.9977, 0
PIDR, 9762543, 0, 0, 0, 0, 0, 0, 0, 0, 0, 0, 0
PIDP, 9762543, 0, 0, 0, 0, 0, 0, 0, 0, 0, 0, 0
PIDY, 9762543, 0, 0, 0, 0, 0, 0, 0, 0, 0, 0, 0
SIM, 9762543, 0.45, -19.99, 178.8, 584.85, -35.3632649, 149.1652374, 0.00954963, 0.173664, 0.002109067, 0.9847564
SIM2, 9762543, -0.314062935971995, -0.000663688906784902, -0.859831394087511, 5.386625E-05, 0.001009516, -1.903488E-05, 0, 0.999001, 0
FILE, test_mission.lua, 1920, 64, millis() > end_time) then\n        gcs:send_text(6, name .. " TES
FILE, test_mission.lua, 1984, 64, T COMPLETED")\n        send_ground_attitude_target(0, 0, 0)\n     
IMU, 9782543, 0, -0.03313436, 0.0002115531, -0.00182204, 9.216381, -0.1057998, -3.35694, 0, 0, 25.1507, 1, 1, 999, 999
IMU, 9782543, 1, -0.03327319, 0.0003200881, -0.001913703, 9.21874, -0.104151, -3.355291, 0, 0, 25.15063, 1, 1, 759, 799
ATT, 9782543, 0, 1.830973, 0, 70.00272, 0, 359.9893, 0
PIDR, 9782543, 0, 0, 0, 0, 0, 0, 0, 0, 0, 0, 0
PIDP, 9782543, 0, 0, 0, 0, 0, 0, 0, 0, 0, 0, 0
PIDY, 9782543, 0, 0, 0, 0, 0, 0, 0, 0, 0, 0, 0
SIM, 9782543, 0.43, -19.99, 178.85, 584.85, -35.3632649, 149.1652374, 0.009201991, 0.1736633, 0.002026686, 0.98476
CTUN, 9782543, 0, 1.83, 0, 70, 0, 0, 0, 0, 2, 0, 1.000008, 0
VIBE, 9782543, 0, 0.003123509, 0.03001526, 0.08466752, 0
VIBE, 9782543, 1, 0.005297078, 0.03067432, 0.08362117, 0
SIM2, 9782543, -0.314061529361718, -0.000636898287520723, -0.859831889474443, 8.498819E-05, 0.001638806, -2.985727E-05, 0, 0.999001, 0
FILE, test_mission.lua, 2048, 64,    return\n    end\n\n    send_ground_attitude_target(roll_command,
IMU, 9802543, 0, -0.05037039, 0.0003656228, -0.002763341, 9.216547, -0.1029685, -3.357004, 0, 0, 25.15202, 1, 1, 999, 999
IMU, 9802543, 1, -0.05060969, 0.0003365994, -0.002698655, 9.218634, -0.1035176, -3.357013, 0, 0, 25.15195, 1, 1, 759, 799
BARO, 9802543, 0, -0.1264648, -0.1264648, 94495.35, 26.73, -0.1111031, 9802, 0, 26.60929, 1
BARO, 9802543, 1, -0.1705933, -0.1705933, 94495.95, 26.73, -0.1111031, 9802, 0, 26.60929, 1
ATT, 9802543, 0, 1.760954, 0, 70.00321, 0, 359.9778, 0
PIDR, 9802543, 0, 0, 0, 0, 0, 0, 0, 0, 0, 0, 0
PIDP, 9802543, 0, 0, 0, 0, 0, 0, 0, 0, 0, 0, 0
PIDY, 9802543, 0, 0, 0, 0, 0, 0, 0, 0, 0, 0, 0
SIM, 9802543, 0.41, -19.99, 178.91, 584.85, -35.3632649, 149.1652374, 0.008686507, 0.1736622, 0.001904531, 0.9847651
AOA, 9802543, 0, 0
STAT, 9802543, 0, 0, 1, 2, 0, 1, 1, 0
SIM2, 9802543, -0.31405951297967, -0.000597469206697236, -0.85983259603242, 0.0001147346, 0.002273443, -4.010568E-05, 0, 0.999001, 0
FILE, test_mission.lua, 2112, 64,  pitch_command, yaw_command)\n    return update, 20\nend\n\nreturn u
FILE, test_mission.lua, 2176, 8, pdate()\n
DCM, 9822543, 1.668692, 70.00378, 359.9628, 0.4112828, 1, 0, 0, 0
EAHR, 9822543, 0, 0, 0, 0, 0, 0, 0, 0, 0, 0
IMU, 9822543, 0, -0.06749628, 0.0004377345, -0.003787049, 9.215878, -0.09212172, -3.354853, 0, 0, 25.15334, 1, 1, 999, 999
IMU, 9822543, 1, -0.06741664, 0.0004187914, -0.003814282, 9.216071, -0.09495179, -3.355267, 0, 0, 25.15328, 1, 1, 759, 799
ATT, 9822543, 0, 1.668692, 0, 70.00378, 0, 359.9628, 0
PIDR, 9822543, 0, 0, 0, 0, 0, 0, 0, 0, 0, 0, 0
PIDP, 9822543, 0, 0, 0, 0, 0, 0, 0, 0, 0, 0, 0
PIDY, 9822543, 0, 0, 0, 0, 0, 0, 0, 0, 0, 0, 0
SIM, 9822543, 0.37, -19.99, 179, 584.85, -35.3632649, 149.1652374, 0.008017363, 0.1736611, 0.001745938, 0.9847714
CTUN, 9822543, 0, 1.66, 0, 70, 0, 0, 0, 0, 2, 0, 0.999994, 0
VIBE, 9822543, 0, 0.003153679, 0.03294369, 0.0660366, 0
VIBE, 9822543, 1, 0.005771084, 0.03083899, 0.06532385, 0
SIM2, 9822543, -0.314057100474173, -0.000547052124235155, -0.859833462247126, 9.636722E-05, 0.00232251, -3.819427E-05, 0, 0.999001, 0
IMU, 9842543, 0, -0.04933157, 0.000203399, -0.002748523, 9.216017, 0.01885939, -3.352982, 0, 0, 25.15466, 1, 1, 999, 999
IMU, 9842543, 1, -0.05061076, 0.0003139101, -0.002748156, 9.217332, 0.01836006, -3.350964, 0, 0, 25.1546, 1, 1, 759, 799
ATT, 9842543, 0, 1.608553, 0, 70.00404, 0, 359.953, 0
PIDR, 9842543, 0, 0, 0, 0, 0, 0, 0, 0, 0, 0, 0
PIDP, 9842543, 0, 0, 0, 0, 0, 0, 0, 0, 0, 0, 0
PIDY, 9842543, 0, 0, 0, 0, 0, 0, 0, 0, 0, 0, 0
SIM, 9842543, 0.35, -19.99, 179.05, 584.85, -35.3632649, 149.1652374, 0.007618046, 0.1736611, 0.001651244, 0.9847746
FILE, abort_mission.lu, 0, 64, local abort_channel = 11\nlocal pitch_command = 0\nlocal aborted =
SIM2, 9842543, -0.314055930151622, -0.000518702662924548, -0.859833928244497, 2.48344E-05, 0.0005992483, -1.005154E-05, 0, 0.999001, 0
FILE, abort_mission.lu, 64, 64,  false\n\nlocal function send_ground_attitude_target(r, p, y)\n    
IMU, 9862543, 0, -0.0009071592, 0.0001822637, 0.000123834, 9.216344, 0.03156525, -3.352888, 0, 0, 25.15599, 1, 1, 999, 999
IMU, 9862543, 1, -0.002759784, 0.0001999646, -6.55909E-05, 9.217515, 0.03378658, -3.353581, 0, 0, 25.15592, 1, 1, 759, 799
ATT, 9862543, 0, 1.610646, 0, 70.00417, 0, 359.9523, 0
PIDR, 9862543, 0, 0, 0, 0, 0, 0, 0, 0, 0, 0, 0
PIDP, 9862543, 0, 0, 0, 0, 0, 0, 0, 0, 0, 0, 0
PIDY, 9862543, 0, 0, 0, 0, 0, 0, 0, 0, 0, 0, 0
SIM, 9862543, 0.36, -19.99, 179.04, 584.85, -35.3632649, 149.1652374, 0.007676067, 0.1736611, 0.001665003, 0.9847742
CTUN, 9862543, 0, 1.61, 0, 70, 0, 0, 0, 0, 2, 0, 0.999994, 0
VIBE, 9862543, 0, 0.002889709, 0.04909405, 0.05147813, 0
VIBE, 9862543, 1, 0.005458355, 0.04983849, 0.05102406, 0
SIM2, 9862543, -0.314056165877739, -0.000524794004039659, -0.859833841377562, -4.507242E-05, -0.00112243, 1.742934E-05, 3.94125E-05, 0.999001, 0
FILE, abort_mission.lu, 128, 64, local theta = -ahrs:get_roll()\n    local cos_t = math.cos(theta)
FILE, abort_mission.lu, 192, 64, \n    local sin_t = math.sin(theta)\n    local p_new = cos_t * p -
IMU, 9882543, 0, 0.04668005, 0.0001431227, 0.002847652, 9.216215, 0.02650209, -3.353499, 0, 0, 25.15731, 1, 1, 999, 999
IMU, 9882543, 1, 0.04736952, 0.0003081883, 0.002865494, 9.215228, 0.02782283, -3.354899, 0, 0, 25.15725, 1, 1, 759, 799
ATT, 9882543, 0, 1.675045, 0, 70.00418, 0, 359.9607, 0
PIDR, 9882543, 0, 0, 0, 0, 0, 0, 0, 0, 0, 0, 0
PIDP, 9882543, 0, 0, 0, 0, 0, 0, 0, 0, 0, 0, 0
PIDY, 9882543, 0, 0, 0, 0, 0, 0, 0, 0, 0, 0, 0
SIM, 9882543, 0.38, -19.99, 178.97, 584.85, -35.3632649, 149.1652374, 0.008190016, 0.1736611, 0.001786875, 0.9847698
SIM2, 9882543, -0.314057849323715, -0.000564981844922093, -0.859833196335186, -0.0001276859, -0.002606535, 4.437937E-05, 0.0001173662, 0.999001, 0
FILE, abort_mission.lu, 256, 64,  sin_t * y\n    local y_new = sin_t * p + cos_t * y\n    local q =
IMU, 9902543, 0, 0.06655037, -7.72826E-05, 0.003994902, 9.218056, -0.08071233, -3.355856, 0, 0, 25.15863, 1, 1, 999, 999
IMU, 9902543, 1, 0.06658404, -9.729267E-05, 0.003850836, 9.217873, -0.08074634, -3.355238, 0, 0, 25.15857, 1, 1, 759, 799
BARO, 9902543, 0, 0.09997559, 0.09997559, 94492.77, 26.74, 0.2297973, 9902, 0, 26.60929, 1
BARO, 9902543, 1, 0.1587524, 0.1587524, 94492.2, 26.74, 0.2297973, 9902, 0, 26.60929, 1
ATT, 9902543, 0, 1.758886, 0, 70.00388, 0, 359.9719, 0
PIDR, 9902543, 0, 0, 0, 0, 0, 0, 0, 0, 0, 0, 0
PIDP, 9902543, 0, 0, 0, 0, 0, 0, 0, 0, 0, 0, 0
PIDY, 9902543, 0, 0, 0, 0, 0, 0, 0, 0, 0, 0, 0
SIM, 9902543, 0.41, -19.99, 178.9, 584.85, -35.3632649, 149.1652374, 0.008801796, 0.1736624, 0.001931851, 0.9847641
AOA, 9902543, 0, 0
CTUN, 9902543, 0, 1.75, 0, 70, 0, 0, 0, 0, 2, 0, 0.999994, 0
VIBE, 9902543, 0, 0.002947426, 0.05399467, 0.04018573, 0
VIBE, 9902543, 1, 0.005369156, 0.05487169, 0.03993599, 0
STAT, 9902543, 0, 0, 1, 2, 0, 1, 1, 0
SIM2, 9902543, -0.314060100351416, -0.000610386210776299, -0.85983241242534, -9.870091E-05, -0.001967022, 3.444324E-05, 8.868612E-05, 0.999001, 0
FILE, abort_mission.lu, 320, 64,  Quaternion()\n    q:from_euler(math.rad(r), math.rad(p_new), mat
FILE, abort_mission.lu, 384, 64, h.rad(y_new))\n    vehicle:set_attitude_target(q:q1(), q:q2(), q:
DCM, 9922543, 1.820004, 70.00378, 359.98, 0.4112828, 1, 0, 0, 0
EAHR, 9922543, 0, 0, 0, 0, 0, 0, 0, 0, 0, 0
IMU, 9922543, 0, 0.04885717, 1.035081E-05, 0.003045077, 9.217027, -0.1053317, -3.358362, 0, 0, 25.15996, 1, 1, 999, 999
IMU, 9922543, 1, 0.0489765, -3.67253E-05, 0.003078549, 9.216921, -0.1077882, -3.357097, 0, 0, 25.15989, 1, 1, 759, 799
ATT, 9922543, 0, 1.820004, 0, 70.00378, 0, 359.98, 0
PIDR, 9922543, 0, 0, 0, 0, 0, 0, 0, 0, 0, 0, 0
PIDP, 9922543, 0, 0, 0, 0, 0, 0, 0, 0, 0, 0, 0
PIDY, 9922543, 0, 0, 0, 0, 0, 0, 0, 0, 0, 0, 0
SIM, 9922543, 0.44, -19.99, 178.84, 584.85, -35.3632649, 149.1652374, 0.00924448, 0.1736633, 0.002036755, 0.9847596
SIM2, 9922543, -0.314061754075963, -0.000643068101253892, -0.859831834572786, -6.80532E-05, -0.00133371, 2.381229E-05, 6.017038E-05, 0.999001, 0
FILE, abort_mission.lu, 448, 64, q3(), q:q4())\nend\n\ngcs:send_text(0, "Mission abort listening!")\n
IMU, 9942543, 0, 0.03054655, 5.993966E-05, 0.001928225, 9.216634, -0.1049722, -3.356929, 0, 0, 25.16128, 1, 1, 999, 999
IMU, 9942543, 1, 0.03110565, 0.0002085605, 0.001998079, 9.216943, -0.1048687, -3.354879, 0, 0, 25.16121, 1, 1, 759, 799
FILE, abort_mission.lu, 512, 64, \nfunction update()\n    if vehicle:get_mode() ~= 15 then -- GUIDE
ATT, 9942543, 0, 1.857967, 0, 70.00369, 0, 359.9846, 0
PIDR, 9942543, 0, 0, 0, 0, 0, 0, 0, 0, 0, 0, 0
PIDP, 9942543, 0, 0, 0, 0, 0, 0, 0, 0, 0, 0, 0
PIDY, 9942543, 0, 0, 0, 0, 0, 0, 0, 0, 0, 0, 0
SIM, 9942543, 0.45, -19.99, 178.81, 584.85, -35.3632649, 149.1652374, 0.009519461, 0.1736639, 0.002101917, 0.9847567
CTUN, 9942543, 0, 1.85, 0, 70, 0, 0, 0, 0, 2, 0, 1.000005, 0
VIBE, 9942543, 0, 0.002953555, 0.04762761, 0.03137946, 0
VIBE, 9942543, 1, 0.004944574, 0.04837266, 0.03126793, 0
SIM2, 9942543, -0.314062782129172, -0.000663132458309223, -0.859831474621995, -3.623993E-05, -0.0007047236, 1.269613E-05, 3.168697E-05, 0.999001, 0
FILE, abort_mission.lu, 576, 64, D\n        return update, 100\n    end\n\n    local sw = rc:get_pwm(
IMU, 9962543, 0, 0.01351888, 3.280303E-05, 0.000923118, 9.216006, -0.106772, -3.339436, 0, 0, 25.1626, 1, 1, 999, 999
IMU, 9962543, 1, 0.01302229, 5.441157E-05, 0.0009166774, 9.216679, -0.1024515, -3.357698, 0, 0, 25.16254, 1, 1, 759, 799
ATT, 9962543, 0, 1.873092, 0, 70.00352, 0, 359.9857, 0
PIDR, 9962543, 0, 0, 0, 0, 0, 0, 0, 0, 0, 0, 0
PIDP, 9962543, 0, 0, 0, 0, 0, 0, 0, 0, 0, 0, 0
PIDY, 9962543, 0, 0, 0, 0, 0, 0, 0, 0, 0, 0, 0
SIM, 9962543, 0.45, -19.99, 178.79, 584.85, -35.3632649, 149.1652374, 0.009626147, 0.1736667, 0.002127264, 0.9847552
SIM2, 9962543, -0.314067701987987, -0.000670604572311432, -0.859829594370219, 4.201265E-05, -7.884093E-05, -1.631065E-05, 0, 0.999001, 0
FILE, abort_mission.lu, 640, 64, abort_channel)\n\n    if sw < 1500 then\n        return update, 100
FILE, abort_mission.lu, 704, 64, \n    elseif not aborted then\n        aborted = true\n        gcs:
IMU, 9982543, 0, -0.003594745, 2.134472E-05, -9.141758E-05, 9.216599, -0.1077253, -3.373876, 0, 0, 25.16393, 1, 1, 999, 999
IMU, 9982543, 1, -0.00385767, -0.0001319602, -1.455262E-05, 9.219919, -0.1073684, -3.56745, 0, 0, 25.16386, 1, 1, 759, 799
ATT, 9982543, 0, 1.865517, 0, 70.00352, 0, 359.9836, 0
PIDR, 9982543, 0, 0, 0, 0, 0, 0, 0, 0, 0, 0, 0
PIDP, 9982543, 0, 0, 0, 0, 0, 0, 0, 0, 0, 0, 0
PIDY, 9982543, 0, 0, 0, 0, 0, 0, 0, 0, 0, 0, 0
SIM, 9982543, 0.45, -19.99, 178.8, 584.85, -35.3632649, 149.1652374, 0.009568013, 0.1736661, 0.002113483, 0.9847559
CTUN, 9982543, 0, 1.86, 0, 70, 0, 0, 0, 0, 2, 0, 1.000005, 0
VIBE, 9982543, 0, 0.01307118, 0.03867375, 0.6848515, 0
VIBE, 9982543, 1, 0.01339718, 0.03955953, 0.6691336, 0
SIM2, 9982543, -0.314066611336057, -0.000665603441549299, -0.859830005320942, 6.610528E-05, 0.0005477479, -2.447386E-05, 0, 0.999001, 0
FILE, abort_mission.lu, 768, 64, send_text(0, "Mission Aborted!")\n    end\n\n    pitch_command = 90
IMU, 10002543, 0, -0.02062587, 0.0002943949, -0.0010751, 9.216761, -0.1051587, -3.357185, 0, 0, 25.16525, 1, 1, 999, 999
IMU, 10002543, 1, -0.0206039, 0.0002283378, -0.001108457, 9.215278, -0.1026268, -3.346607, 0, 0, 25.16518, 1, 1, 759, 799
BARO, 10002543, 0, 0.02355957, 0.02355957, 94493.65, 26.76, 0.1810455, 10002, 0, 26.60929, 1
BARO, 10002543, 1, 0.06469727, 0.06469727, 94493.27, 26.76, 0.1810455, 10002, 0, 26.60929, 1
ATT, 10002543, 0, 1.835291, 0, 70.00384, 0, 359.9781, 0
PIDR, 10002543, 0, 0, 0, 0, 0, 0, 0, 0, 0, 0, 0
PIDP, 10002543, 0, 0, 0, 0, 0, 0, 0, 0, 0, 0, 0
PIDY, 10002543, 0, 0, 0, 0, 0, 0, 0, 0, 0, 0, 0
SIM, 10002543, 0.44, -19.99, 178.83, 584.85, -35.3632649, 149.1652374, 0.009343169, 0.1736653, 0.002060197, 0.9847583
AOA, 10002543, 0, 0
