FMT, 128, 89, FMT, BBnNZ, Type,Length,Name,Format,Columns
FMT, 118, 44, FMTU, QBNN, TimeUS,FmtType,UnitIds,MultIds
FMT, 163, 54, IMU, QBffffffIIfBBHH, TimeUS,I,GyrX,GyrY,GyrZ,AccX,AccY,AccZ,EG,EA,T,GH,AH,GHz,AHz
IMU, 50654626, 0, 0.0007239188, 0.0007280227, 0.0007453337, 9.217861, -0.06557303, -3.355518, 0, 0, 28.1065, 1, 1, 999, 999
IMU, 50654626, 1, 0.000590104, 0.0008352039, 0.0007827116, 9.21569, -0.0657455, -3.35858, 0, 0, 28.1065, 1, 1, 760, 799
FMT, 72, 36, ATT, QffffffB, TimeUS,DesRoll,Roll,DesPitch,Pitch,DesYaw,Yaw,AEKF
ATT, 50654626, 1.51, 1.510662, 70.11, 70.11925, 0, 359.9037, 0
FMT, 105, 52, PIDR, QffffffffffB, TimeUS,Tar,Act,Err,P,I,D,FF,DFF,Dmod,SRate,Flags
PIDR, 50654626, 0, 0.03229719, -0.0005636924, -0.009689159, 0, 0.001207557, 0, 0, 1, 0.09598876, 9
FMT, 106, 52, PIDP, QffffffffffB, TimeUS,Tar,Act,Err,P,I,D,FF,DFF,Dmod,SRate,Flags
PIDP, 50654626, 0, 0.02340816, -0.0004085494, -0.003511224, 0, 4.641361E-05, 0, 0, 1, 0.1032838, 9
FMT, 107, 52, PIDY, QffffffffffB, TimeUS,Tar,Act,Err,P,I,D,FF,DFF,Dmod,SRate,Flags
PIDY, 50654626, 0, 0.0178317, -0.0003112219, -0.0007132679, 0, 0, 0, 0, 1, 0.005094288, 9
FMT, 77, 45, SIM, QccCfLLffff, TimeUS,Roll,Pitch,Yaw,Alt,Lat,Lng,Q1,Q2,Q3,Q4
SIM, 50654626, 0.39, -19.99, 178.95, 584.85, -35.3632649, 149.1652374, 0.008404892, 0.1736616, 0.001825524, 0.9847678
FMT, 0, 48, CTUN, QccccffffBffi, TimeUS,NavRoll,Roll,NavPitch,Pitch,ThO,RdO,ThD,As,AsT,SAs,E2T,GU
CTUN, 50654626, 1.51, 1.51, 70.11, 70.11, 50, 0, 0, 0, 2, 0, 0.9999982, 0
FMT, 166, 28, VIBE, QBfffI, TimeUS,IMU,VibeX,VibeY,VibeZ,Clip
VIBE, 50654626, 0, 0.002836062, 0.00281078, 0.02038327, 1
VIBE, 50654626, 1, 0.005405788, 0.005787514, 0.01526317, 1
FMT, 119, 76, UNIT, QbZ, TimeUS,Id,Label
FMT, 120, 20, MULT, Qbd, TimeUS,Id,Mult
FMT, 32, 35, PARM, QNff, TimeUS,Name,Value,Default
FMT, 94, 51, GPS, QBBIHBcLLeffffB, TimeUS,I,Status,GMS,GWk,NSats,HDop,Lat,Lng,Alt,Spd,GCrs,VZ,Yaw,U
FMT, 95, 39, GPA, QBCCCCfBIHeHH, TimeUS,I,VDop,HAcc,VAcc,SAcc,YAcc,VV,SMS,Delta,AEl,RTCMFU,RTCMFD
FMT, 99, 22, UBX1, QBHBBHI, TimeUS,Instance,noisePerMS,jamInd,aPower,agcCnt,config
FMT, 100, 16, UBX2, QBbBbB, TimeUS,Instance,ofsI,magI,ofsQ,magQ
FMT, 96, 42, GRAW, QIHBBddfBbB, TimeUS,WkMS,Week,numSV,sv,cpMes,prMes,doMes,mesQI,cno,lli
FMT, 97, 24, GRXH, QdHbBB, TimeUS,rcvTime,week,leapS,numMeas,recStat
FMT, 98, 41, GRXS, QddfBBBHBBBBB, TimeUS,prMes,cpMes,doMes,gnss,sv,freq,lock,cno,prD,cpD,doD,trk
FMT, 101, 23, SBPH, QIII, TimeUS,CrcError,LastInject,IARhyp
FMT, 102, 67, SBRH, QQQQQQQQ, TimeUS,msg_flag,1,2,3,4,5,6
FMT, 103, 123, SBRM, QQQQQQQQQQQQQQQ, TimeUS,msg_flag,1,2,3,4,5,6,7,8,9,10,11,12,13
FMT, 104, 23, SBRE, QHIiBB, TimeUS,GWk,GMS,ns_residual,level,quality
FMT, 59, 75, MSG, QZ, TimeUS,Message
FMT, 60, 39, RCIN, QHHHHHHHHHHHHHH, TimeUS,C1,C2,C3,C4,C5,C6,C7,C8,C9,C10,C11,C12,C13,C14
FMT, 61, 18, RCI2, QHHHB, TimeUS,C15,C16,OMask,Flags
FMT, 62, 39, RCOU, QHHHHHHHHHHHHHH, TimeUS,C1,C2,C3,C4,C5,C6,C7,C8,C9,C10,C11,C12,C13,C14
FMT, 207, 19, RCO2, QHHHH, TimeUS,C15,C16,C17,C18
FMT, 208, 39, RCO3, QHHHHHHHHHHHHHH, TimeUS,C19,C20,C21,C22,C23,C24,C25,C26,C27,C28,C29,C30,C31,C32
FMT, 63, 19, RSSI, Qff, TimeUS,RXRSSI,RXLQ
FMT, 64, 43, BARO, QBfffcfIffB, TimeUS,I,Alt,AltAMSL,Press,Temp,CRt,SMS,Offset,GndTemp,Health
FMT, 65, 24, BARD, QBfff, TimeUS,I,DynPrX,DynPrY,DynPrZ
FMT, 66, 25, CANF, QBIBBBBBBBBB, TimeUS,Bus,Id,DLC,B0,B1,B2,B3,B4,B5,B6,B7
FMT, 67, 81, CAFD, QBIBQQQQQQQQ, TimeUS,Bus,Id,DLC,D0,D1,D2,D3,D4,D5,D6,D7
FMT, 196, 50, PL, QBBfffffffIIB, TimeUS,Heal,TAcq,pX,pY,vX,vY,mX,mY,mZ,LastMeasMS,EKFOutl,Est
FMT, 68, 24, POWR, QffHHB, TimeUS,Vcc,VServo,Flags,AccFlags,Safety
FMT, 69, 27, MCU, Qffff, TimeUS,MTemp,MVolt,MVmin,MVmax
FMT, 93, 46, CMD, QHHHffffLLfB, TimeUS,CTot,CNum,CId,Prm1,Prm2,Prm3,Prm4,Lat,Lng,Alt,Frame
FMT, 92, 46, MISE, QHHHffffLLfB, TimeUS,CTot,CNum,CId,Prm1,Prm2,Prm3,Prm4,Lat,Lng,Alt,Frame
FMT, 78, 48, MAVC, QBBBBBHffffiifBB, TimeUS,TS,TC,SS,SC,Fr,Cmd,P1,P2,P3,P4,X,Y,Z,Res,WL
FMT, 79, 20, RAD, QBBBBBHH, TimeUS,RSSI,RemRSSI,TxBuf,Noise,RemNoise,RxErrors,Fixed
FMT, 81, 46, CAM, QBHIHLLeeeccC, TimeUS,I,Img,GPSTime,GPSWeek,Lat,Lng,Alt,RelAlt,GPSAlt,R,P,Y
FMT, 82, 46, TRIG, QBHIHLLeeeccC, TimeUS,I,Img,GPSTime,GPSWeek,Lat,Lng,Alt,RelAlt,GPSAlt,R,P,Y
FMT, 83, 48, MNT, QBfffffffff, TimeUS,I,DRoll,Roll,DPitch,Pitch,DYawB,YawB,DYawE,YawE,Dist
FMT, 114, 41, ARSP, QBffcffBBffB, TimeUS,I,Airspeed,DiffPress,Temp,RawPress,Offset,U,H,Hp,TR,Pri
FMT, 88, 41, BAT, QBfffffcfBBB, TimeUS,Inst,Volt,VoltR,Curr,CurrTot,EnrgTot,Temp,Res,RemPct,H,SH
FMT, 89, 40, BCL, QBfHHHHHHHHHHHH, TimeUS,Instance,Volt,V1,V2,V3,V4,V5,V6,V7,V8,V9,V10,V11,V12
FMT, 113, 35, MAG, QBhhhhhhhhhBI, TimeUS,I,MagX,MagY,MagZ,OfsX,OfsY,OfsZ,MOX,MOY,MOZ,Health,S
FMT, 122, 14, MODE, QMBB, TimeUS,Mode,ModeNum,Rsn
FMT, 116, 17, RFND, QBCBBb, TimeUS,Instance,Dist,Stat,Orient,Quality
FMT, 117, 36, DMS, QIIIIBBBBBBBBB, TimeUS,N,Dp,RT,RS,Fa,Fmn,Fmx,Pa,Pmn,Pmx,Sa,Smn,Smx
FMT, 174, 41, BCN, QBBfffffff, TimeUS,Health,Cnt,D0,D1,D2,D3,PosX,PosY,PosZ
FMT, 175, 57, PRX, QBBfffffffffff, TimeUS,Layer,He,D0,D45,D90,D135,D180,D225,D270,D315,DUp,CAn,CDis
FMT, 176, 44, PRXR, QBffffffff, TimeUS,Layer,D0,D45,D90,D135,D180,D225,D270,D315
FMT, 179, 61, PM, QHHHIIHHIIIIIIQ, TimeUS,LR,NLon,NL,MaxT,Mem,Load,ErrL,InE,ErC,SPIC,I2CC,I2CI,Ex,R
FMT, 178, 29, SRTL, QBHHBfff, TimeUS,Active,NumPts,MaxPts,Action,N,E,D
FMT, 170, 48, OABR, QBBHHHBfLLiLLi, TimeUS,Type,Act,DYaw,Yaw,DP,RChg,Mar,DLt,DLg,DAlt,OLt,OLg,OAlt
FMT, 171, 31, OADJ, QBBBBLLLL, TimeUS,State,Err,CurrPoint,TotPoints,DLat,DLng,OALat,OALng
FMT, 172, 37, SA, QBffffffB, TimeUS,State,DVelX,DVelY,DVelZ,MVelX,MVelY,MVelZ,Back
FMT, 173, 21, OAVG, QBBLL, TimeUS,version,point_num,Lat,Lon
FMT, 84, 38, TERR, QBLLHffHHf, TimeUS,Status,Lat,Lng,Spacing,TerrH,CHeight,Pending,Loaded,ROfs
FMT, 86, 40, ESC, QBffffcfcf, TimeUS,Instance,RPM,RawRPM,Volt,Curr,Temp,CTot,MotTemp,Err
FMT, 87, 15, EDT2, QBBBB, TimeUS,Instance,Stress,MaxStress,Status
FMT, 85, 46, CSRV, QBfffBfffffB, TimeUS,Id,Pos,Force,Speed,Pow,PosCmd,V,A,MotT,PCBT,Err
FMT, 108, 52, PIDA, QffffffffffB, TimeUS,Tar,Act,Err,P,I,D,FF,DFF,Dmod,SRate,Flags
FMT, 109, 52, PIDS, QffffffffffB, TimeUS,Tar,Act,Err,P,I,D,FF,DFF,Dmod,SRate,Flags
FMT, 110, 52, PIDN, QffffffffffB, TimeUS,Tar,Act,Err,P,I,D,FF,DFF,Dmod,SRate,Flags
FMT, 111, 52, PIDE, QffffffffffB, TimeUS,Tar,Act,Err,P,I,D,FF,DFF,Dmod,SRate,Flags
FMT, 161, 32, ACC, QBQfff, TimeUS,I,SampleUS,AccX,AccY,AccZ
FMT, 162, 32, GYR, QBQfff, TimeUS,I,SampleUS,GyrX,GyrY,GyrZ
FMT, 164, 31, ISBH, QHBBHHQf, TimeUS,N,type,instance,mul,smp_cnt,SampleUS,smp_rate
FMT, 165, 207, ISBD, QHHaaa, TimeUS,N,seqno,x,y,z
FMT, 129, 15, RFRH, QI, TimeUS,TF
FMT, 130, 5, RFRF, BB, FTypes,Slow
FMT, 138, 38, RFRN, IIIfIfffBBB, HLat,HLon,HAlt,E2T,AM,TX,TY,TZ,VC,EKT,Flags
FMT, 131, 4, REV2, B, Event
FMT, 132, 15, RSO2, III, Lat,Lon,Alt
FMT, 133, 11, RWA2, ff, Airspeed,uncertainty
FMT, 134, 4, REV3, B, Event
FMT, 135, 15, RSO3, III, Lat,Lon,Alt
FMT, 136, 11, RWA3, ff, Airspeed,Uncertainty
FMT, 137, 16, REY3, ffIB, yawangle,yawangleerr,timestamp_ms,type
FMT, 139, 13, RISH, HBBfBB, LR,PG,PA,LD,AC,GC
FMT, 140, 37, RISI, ffffffffBB, DVX,DVY,DVZ,DAX,DAY,DAZ,DVDT,DADT,Flags,I
FMT, 148, 5, RASH, BB, Primary,NumInst
FMT, 149, 14, RASI, fIBBB, pd,UpdateMS,H,Use,I
FMT, 141, 5, RBRH, BB, Primary,NumInst
FMT, 142, 13, RBRI, IfBB, LastUpdate,Alt,H,I
FMT, 143, 8, RRNH, hhB, GCl,MaxD,NumSensors
FMT, 144, 20, RRNI, fffHBBB, PX,PY,PZ,Dist,Orient,Status,I
FMT, 145, 5, RGPH, BB, NumInst,Primary
FMT, 146, 23, RGPI, ffffBBBB, OX,OY,OZ,Lg,Flags,Stat,NSats,I
FMT, 147, 58, RGPJ, IffffffIiiiffHB, TS,VX,VY,VZ,SA,Y,YA,YT,Lat,Lon,Alt,HA,VA,HD,I
FMT, 153, 14, RMGH, fBBBBBBB, Dec,Avail,NumInst,AutoDec,NumEna,LOE,C,FUsable
FMT, 154, 35, RMGI, IffffffBBBB, LU,OX,OY,OZ,FX,FY,FZ,UFY,H,HSF,I
FMT, 150, 33, RBCH, ffffiiiBB, PX,PY,PZ,AE,OLat,OLng,OAlt,Flags,NumInst
FMT, 151, 25, RBCI, IffffBB, LU,PX,PY,PZ,Dist,H,I
FMT, 152, 21, RVOH, fffIBB, OX,OY,OZ,Del,H,Ena
FMT, 155, 40, ROFH, ffffIffffB, FX,FY,GX,GY,Tms,PX,PY,PZ,HgtOvr,Qual
FMT, 156, 49, REPH, fffffffffIIH, PX,PY,PZ,Q1,Q2,Q3,Q4,PEr,AEr,TS,RT,D
FMT, 157, 19, RSLL, IIfI, Lat,Lng,PosAccSD,TS
FMT, 158, 25, REVH, ffffIH, VX,VY,VZ,Er,TS,D
FMT, 159, 31, RWOH, ffIffff, DA,DT,TS,PX,PY,PZ,R
FMT, 160, 53, RBOH, ffffffffIfffH, Q,DPX,DPY,DPZ,DAX,DAY,DAZ,DT,TS,OX,OY,OZ,D
FMT, 33, 37, NKF0, QBBccCCcccccccc, TimeUS,C,ID,rng,innov,SIV,TR,BPN,BPE,BPD,OFH,OFL,OFN,OFE,OFD
FMT, 34, 56, NKF1, QBccCfffffffccce, TimeUS,C,Roll,Pitch,Yaw,VN,VE,VD,dPD,PN,PE,PD,GX,GY,GZ,OH
FMT, 35, 36, NKF2, QBbccccchhhhhhB, TimeUS,C,AZbias,GSX,GSY,GSZ,VWN,VWE,MN,ME,MD,MX,MY,MZ,MI
FMT, 36, 42, NKF3, QBcccccchhhccff, TimeUS,C,IVN,IVE,IVD,IPN,IPE,IPD,IMX,IMY,IMZ,IYAW,IVT,RErr,ErSc
FMT, 37, 44, NKF4, QBcccccfffHBIHb, TimeUS,C,SV,SP,SH,SM,SVT,errRP,OFN,OFE,FS,TS,SS,GPS,PI
FMT, 38, 41, NKF5, QBBhhhcccCCfff, TimeUS,C,NI,FIX,FIY,AFI,HAGL,offset,RI,rng,Herr,eAng,eVel,ePos
FMT, 39, 28, NKQ, QBffff, TimeUS,C,Q1,Q2,Q3,Q4
FMT, 40, 48, NKT, QBIffffffff, TimeUS,C,Cnt,IMUMin,IMUMax,EKFMin,EKFMax,AngMin,AngMax,VMin,VMax
FMT, 43, 37, XKF0, QBBccCCcccccccc, TimeUS,C,ID,rng,innov,SIV,TR,BPN,BPE,BPD,OFH,OFL,OFN,OFE,OFD
FMT, 44, 56, XKF1, QBccCfffffffccce, TimeUS,C,Roll,Pitch,Yaw,VN,VE,VD,dPD,PN,PE,PD,GX,GY,GZ,OH
FMT, 45, 46, XKF2, QBccccchhhhhhfff, TimeUS,C,AX,AY,AZ,VWN,VWE,MN,ME,MD,MX,MY,MZ,IDX,IDY,IS
FMT, 46, 42, XKF3, QBcccccchhhccff, TimeUS,C,IVN,IVE,IVD,IPN,IPE,IPD,IMX,IMY,IMZ,IYAW,IVT,RErr,ErSc
FMT, 47, 44, XKF4, QBcccccfffHBIHb, TimeUS,C,SV,SP,SH,SM,SVT,errRP,OFN,OFE,FS,TS,SS,GPS,PI
FMT, 48, 41, XKF5, QBBhhhcccCCfff, TimeUS,C,NI,FIX,FIY,AFI,HAGL,offset,RI,rng,Herr,eAng,eVel,ePos
FMT, 49, 36, XKFD, QBffffff, TimeUS,C,IX,IY,IZ,IVX,IVY,IVZ
FMT, 50, 29, XKFM, QBBffff, TimeUS,C,OGNM,GLR,ALR,GDR,ADR
FMT, 51, 20, XKFS, QBBBBBBBBB, TimeUS,C,MI,BI,GI,AI,SS,GPS_GTA,GPS_CHK_WAIT,MAG_FUSION
FMT, 52, 28, XKQ, QBffff, TimeUS,C,Q1,Q2,Q3,Q4
FMT, 53, 48, XKT, QBIffffffff, TimeUS,C,Cnt,IMUMin,IMUMax,EKFMin,EKFMax,AngMin,AngMax,VMin,VMax
FMT, 54, 20, XKTV, QBff, TimeUS,C,TVS,TVD
FMT, 55, 60, XKV1, QBffffffffffff, TimeUS,C,V00,V01,V02,V03,V04,V05,V06,V07,V08,V09,V10,V11
FMT, 56, 60, XKV2, QBffffffffffff, TimeUS,C,V12,V13,V14,V15,V16,V17,V18,V19,V20,V21,V22,V23
FMT, 57, 60, XKY0, QBffffffffffff, TimeUS,C,YC,YCS,Y0,Y1,Y2,Y3,Y4,W0,W1,W2,W3,W4
FMT, 58, 52, XKY1, QBffffffffff, TimeUS,C,IVN0,IVN1,IVN2,IVN3,IVN4,IVE0,IVE1,IVE2,IVE3,IVE4
FMT, 41, 60, NKY0, QBffffffffffff, TimeUS,C,YC,YCS,Y0,Y1,Y2,Y3,Y4,W0,W1,W2,W3,W4
FMT, 42, 52, NKY1, QBffffffffff, TimeUS,C,IVN0,IVN1,IVN2,IVN3,IVN4,IVE0,IVE1,IVE2,IVE3,IVE4
FMT, 70, 45, AHR2, QccCfLLffff, TimeUS,Roll,Pitch,Yaw,Alt,Lat,Lng,Q1,Q2,Q3,Q4
FMT, 71, 19, AOA, Qff, TimeUS,AOA,SSA
FMT, 73, 24, ORGN, QBLLe, TimeUS,Type,Lat,Lng,Alt
FMT, 74, 31, POS, QLLfff, TimeUS,Lat,Lng,Alt,RelHomeAlt,RelOriginAlt
FMT, 76, 35, ATSC, Qffffff, TimeUS,AngPScX,AngPScY,AngPScZ,PDScX,PDScY,PDScZ
FMT, 204, 51, VSTB, Qffffffffff, TimeUS,GyrX,GyrY,GyrZ,AccX,AccY,AccZ,Q1,Q2,Q3,Q4
FMT, 90, 38, MON, QIbIHHHHHII, TimeUS,Dly,Tsk,IErr,IErrCnt,IErrLn,MM,MC,SmLn,SPICnt,I2CCnt
FMT, 91, 47, WDOG, QbIHHHHHHHIBIIn, TimeUS,Tsk,IE,IEC,IEL,MvMsg,MvCmd,SmLn,FL,FT,FA,FP,ICSR,LR,TN
FMT, 210, 20, UART, QBff, TimeUS,I,Tx,Rx
FMT, 115, 21, RPM, QBffB, TimeUS,I,RPM,Qual,H
FMT, 209, 27, FNCE, QBBBLLBf, TimeUS,Tot,Seq,Type,Lat,Lng,Count,Radius
FMT, 177, 33, DSF, QIHIIII, TimeUS,Dp,Blk,Bytes,FMn,FMx,FAv
FMT, 121, 24, RALY, QBBLLhB, TimeUS,Tot,Seq,Lat,Lng,Alt,Flags
FMT, 183, 23, MAV, QBHHHBHH, TimeUS,chan,txp,rxp,rxdp,flags,ss,tf
FMT, 167, 43, VISO, Qffffffff, TimeUS,dt,AngDX,AngDY,AngDZ,PosDX,PosDY,PosDZ,conf
FMT, 168, 58, VISP, QQIffffffffBBb, TimeUS,RTimeUS,CTimeMS,PX,PY,PZ,R,P,Y,PErr,AErr,Rst,Ign,Q
FMT, 169, 42, VISV, QQIffffBBb, TimeUS,RTimeUS,CTimeMS,VX,VY,VZ,VErr,Rst,Ign,Q
FMT, 180, 28, OF, QBffff, TimeUS,Qual,flowX,flowY,bodyX,bodyY
FMT, 182, 21, WENC, Qfbfb, TimeUS,Dist0,Qual0,Dist1,Qual1
FMT, 185, 35, ADSB, QIiiiHHhH, TimeUS,ICAO_address,Lat,Lng,Alt,Heading,Hor_vel,Ver_vel,Squark
FMT, 181, 12, EV, QB, TimeUS,Id
FMT, 186, 18, ARM, QBIBB, TimeUS,ArmState,ArmChecks,Forced,Method
FMT, 184, 13, ERR, QBB, TimeUS,Subsys,ECode
FMT, 187, 35, WINC, QBBBBBfffHfb, TimeUS,Heal,ThEnd,Mov,Clut,Mode,DLen,Len,DRate,Tens,Vcc,Temp
FMT, 188, 47, PSCN, Qfffffffff, TimeUS,DPN,TPN,PN,DVN,TVN,VN,DAN,TAN,AN
FMT, 189, 47, PSCE, Qfffffffff, TimeUS,DPE,TPE,PE,DVE,TVE,VE,DAE,TAE,AE
FMT, 190, 47, PSCD, Qfffffffff, TimeUS,DPD,TPD,PD,DVD,TVD,VD,DAD,TAD,AD
FMT, 191, 35, PSON, Qffffff, TimeUS,TPON,PON,TVON,VON,TAON,AON
FMT, 192, 35, PSOE, Qffffff, TimeUS,TPOE,POE,TVOE,VOE,TAOE,AOE
FMT, 193, 35, PSOD, Qffffff, TimeUS,TPOD,POD,TVOD,VOD,TAOD,AOD
FMT, 194, 35, PSOT, Qffffff, TimeUS,TPOT,POT,TVOT,VOT,TAOT,AOT
FMT, 75, 63, RATE, Qfffffffffffff, TimeUS,RDes,R,ROut,PDes,P,POut,YDes,Y,YOut,ADes,A,AOut,AOutSlew
FMT, 195, 39, ANG, Qfffffff, TimeUS,DesRoll,Roll,DesPitch,Pitch,DesYaw,Yaw,Dt
FMT, 201, 33, STAK, QBBHHN, TimeUS,Id,Pri,Total,Free,Name
FMT, 202, 88, FILE, NIBZ, FileName,Offset,Length,Data
FMT, 197, 78, AISR, QBBBZ, TimeUS,num,total,ID,payload
FMT, 198, 41, AIS1, QBBIBbHbLLHHBBbI, US,typ,rep,mmsi,nav,rot,sog,pos,lon,lat,cog,hed,sec,man,raim,rad
FMT, 199, 38, AIS4, QBIHBBBBBBLLBBI, US,rep,mmsi,year,mth,day,h,m,s,fix,lon,lat,epfd,raim,rad
FMT, 200, 175, AIS5, QBIBINZBHHBBBBZB, US,rep,mmsi,ver,imo,cal,nam,typ,bow,stn,prt,str,fix,dght,dst,dte
FMT, 203, 39, SCR, QNIii, TimeUS,Name,Runtime,Total_mem,Run_mem
FMT, 206, 90, VER, QBHBBBBIZHBB, TimeUS,BT,BST,Maj,Min,Pat,FWT,GH,FWS,APJ,BU,FV
FMT, 205, 32, MOTB, QfffffB, TimeUS,LiftMax,BatVolt,ThLimit,ThrAvMx,ThrOut,FailFlags
FMT, 80, 54, ATRP, QBBffffffffBff, TimeUS,Axis,State,Sur,PSlew,DSlew,FF0,FF,P,I,D,Action,RMAX,TAU
FMT, 1, 22, STAT, QBfBBBBBB, TimeUS,isFlying,isFlyProb,Armed,Safety,Crash,Still,Stage,Hit
FMT, 7, 52, PIDG, QffffffffffB, TimeUS,Tar,Act,Err,P,I,D,FF,DFF,Dmod,SRate,Flags
FMT, 8, 39, AETR, Qfffffff, TimeUS,Ail,Elev,Thr,Rudd,Flap,Steer,SS
FMT, 12, 29, SEEK, QffBBQ, TimeUS,AngX,AngY,Conf,Valid,TUS
FMT, 13, 29, FSTG, QBBIIII, TimeUS,Stg,PStg,BstS,BstC,StgE,DDly
MSG, 50654626, TheRocket V4.6.1 (93e7bd15 61d0d0fe)
VER, 50654626, 3, 65535, 4, 6, 1, 255, 2481437973, TheRocket V4.6.1 (93e7bd15 61d0d0fe), 0, 14, 2
MSG, 50654626, MacBook-Air-Max.local
MSG, 50654626, Param space used: 146/3840
MSG, 50654626, RC Protocol: SITL
MODE, 50654626, 0, 0, 26
MSG, 50654626, GPS 1: probing for u-blox at 230400 baud
FMT, 250, 59, SIM2, QdddfffffI, TimeUS,PN,PE,PD,VN,VE,VD,As,ASpdU,UFC
SIM2, 50654626, -0.314058851713425, -0.000564055526925099, -0.859832466948347, 5.833181E-06, -8.971353E-09, -2.242622E-06, 0, 0.999001, 0
FILE, @SYS/uarts.txt, 0, 64, UARTV1\nSERIAL0 TX=  182023 RX=   34646 TXBD= 36054 RXBD=  6862 c
FILE, @SYS/uarts.txt, 64, 64, onnected     (tcp:0:wait)\nSERIAL1 TX=       0 RX=       0 TXBD= 
FMT, 252, 43, DCM, Qffffffff, TimeUS,Roll,Pitch,Yaw,ErrRP,ErrYaw,VWN,VWE,VWD
DCM, 50674626, 1.510869, 70.11966, 359.9034, 0.003042214, 1, 0, 0, 0
FMT, 251, 51, EAHR, QffffffLLfI, TimeUS,Roll,Pitch,Yaw,VN,VE,VD,Lat,Lon,Alt,Flg
EAHR, 50674626, 0, 0, 0, 0, 0, 0, 0, 0, 0, 0
IMU, 50674626, 0, 0.0007280872, 0.0007174396, 0.0007684396, 9.216884, -0.06451738, -3.356493, 0, 0, 28.10763, 1, 1, 999, 999
IMU, 50674626, 1, 0.0005817704, 0.0007896075, 0.0009300412, 9.217562, -0.06207665, -3.354382, 0, 0, 28.10763, 1, 1, 760, 799
ATT, 50674626, 1.51, 1.510869, 70.11, 70.11966, 0, 359.9034, 0
PIDR, 50674626, 0, 0.03253603, -0.0005678609, -0.00976081, 0, 0.0003563369, 0, 0, 1, 0.09683532, 9
PIDP, 50674626, 0, 0.02280179, -0.0003979664, -0.003420269, 0, 0.0001509438, 0, 0, 1, 0.1033021, 9
PIDY, 50674626, 0, 0.01915556, -0.0003343277, -0.0007662225, 0, 0, 0, 0, 1, 0.005095478, 9
SIM, 50674626, 0.39, -19.99, 178.95, 584.85, -35.3632649, 149.1652374, 0.008404892, 0.1736616, 0.001825524, 0.9847678
SIM2, 50674626, -0.314058851713425, -0.000564055526925099, -0.859832466948347, 5.833181E-06, -8.971353E-09, -2.242622E-06, 0, 0.999001, 0
FILE, @SYS/uarts.txt, 128, 64,     0 RXBD=     0 not connected (tcp:2)\nSERIAL2 TX=       0 RX= 
IMU, 50694626, 0, 0.0007402232, 0.0007446509, 0.0007371302, 9.217257, -0.06518033, -3.356916, 0, 0, 28.10875, 1, 1, 999, 999
IMU, 50694626, 1, 0.0007773704, 0.0007125181, 0.0007136624, 9.216718, -0.0651928, -3.356547, 0, 0, 28.10875, 1, 1, 760, 799
BARO, 50694626, 0, 0.1705933, 0.1705933, 94494.02, 30.05, -0.01863479, 50694, 0, 30.04396, 1
BARO, 50694626, 1, 0, 0, 94494.48, 30.05, -0.01863479, 50694, 0, 30.04396, 1
ATT, 50694626, 1.51, 1.510914, 70.11, 70.11964, 0, 359.9029, 0
PIDR, 50694626, 0, 0.03323137, -0.0005799968, -0.00996941, 0, -0.0002222802, 0, 0, 1, 0.09764802, 9
PIDP, 50694626, 0, 0.02436089, -0.0004251777, -0.003654133, 0, -0.0002803382, 0, 0, 1, 0.1016656, 9
PIDY, 50694626, 0, 0.01736167, -0.0003030183, -0.0006944668, 0, 0, 0, 0, 1, 0.005070087, 9
SIM, 50694626, 0.39, -19.99, 178.95, 584.85, -35.3632649, 149.1652374, 0.008404892, 0.1736616, 0.001825524, 0.9847678
AOA, 50694626, 0, 0
CTUN, 50694626, 1.51, 1.51, 70.11, 70.11, 50, 0, 0, 0, 2, 0, 0.9999982, 0
VIBE, 50694626, 0, 0.0027033, 0.002620027, 0.01595991, 1
VIBE, 50694626, 1, 0.005597474, 0.005935178, 0.01244315, 1
STAT, 50694626, 0, 0, 1, 2, 0, 1, 0, 0
UART, 50694626, 0, 2976, 661
UART, 50694626, 3, 95, 2130
SIM2, 50694626, -0.314058851713425, -0.000564055526925099, -0.859832466948347, 5.833181E-06, -8.971353E-09, -2.242622E-06, 0, 0.999001, 0
FILE, @SYS/uarts.txt, 192, 64,       0 TXBD=     0 RXBD=     0 not connected (tcp:3)\nSERIAL3 TX
FILE, @SYS/uarts.txt, 256, 64, =    5086 RX=  103944 TXBD=  1007 RXBD= 20588 connected     (GPS
IMU, 50714626, 0, 0.0007546649, 0.0007857949, 0.0007146159, 9.216874, -0.06535611, -3.357307, 0, 0, 28.10988, 1, 1, 999, 999
IMU, 50714626, 1, 0.0009133416, 0.0007526492, 0.0008051364, 9.216301, -0.06416984, -3.356097, 0, 0, 28.10988, 1, 1, 760, 799
ATT, 50714626, 1.51, 1.510903, 70.11, 70.11967, 0, 359.9024, 0
PIDR, 50714626, 0, 0.03405882, -0.0005944386, -0.01021765, 0, -0.0005222211, 0, 0, 1, 0.09842822, 9
PIDP, 50714626, 0, 0.02671826, -0.0004663217, -0.004007739, 0, -0.0006266569, 0, 0, 1, 0.09963232, 9
PIDY, 50714626, 0, 0.0160717, -0.0002805041, -0.0006428679, 0, 0, 0, 0, 1, 0.00501723, 9
SIM, 50714626, 0.39, -19.99, 178.95, 584.85, -35.3632649, 149.1652374, 0.008404892, 0.1736616, 0.001825524, 0.9847678
SIM2, 50714626, -0.314058851713425, -0.000564055526925099, -0.859832466948347, 5.833181E-06, -8.971353E-09, -2.242622E-06, 0, 0.999001, 0
FILE, @SYS/uarts.txt, 320, 64, 1)\nSERIAL4 TX=       0 RX=       0 TXBD=     0 RXBD=     0 conne
FILE, @SYS/uarts.txt, 384, 64, cted     (GPS2)\nSERIAL5 TX=       0 RX=       0 TXBD=     0 RXBD
IMU, 50734626, 0, 0.0007353909, 0.0007640355, 0.0007067522, 9.216728, -0.06521845, -3.356288, 0, 0, 28.111, 1, 1, 999, 999
IMU, 50734626, 1, 0.0007096, 0.0007168428, 0.0007720349, 9.215787, -0.06527779, -3.358577, 0, 0, 28.111, 1, 1, 760, 799
ATT, 50734626, 1.51, 1.510923, 70.11, 70.11964, 0, 359.9019, 0
PIDR, 50734626, 0, 0.0329545, -0.0005751646, -0.00988635, 0, 0.0003704479, 0, 0, 1, 0.0991772, 9
PIDP, 50734626, 0, 0.02547154, -0.0004445623, -0.003820732, 0, 2.243101E-05, 0, 0, 1, 0.09763968, 9
PIDY, 50734626, 0, 0.01562114, -0.0002726403, -0.0006248456, 0, 0, 0, 0, 1, 0.00496543, 9
SIM, 50734626, 0.39, -19.99, 178.95, 584.85, -35.3632649, 149.1652374, 0.008404892, 0.1736616, 0.001825524, 0.9847678
CTUN, 50734626, 1.51, 1.51, 70.11, 70.11, 50, 0, 0, 0, 2, 0, 1.000008, 0
VIBE, 50734626, 0, 0.00277123, 0.002739895, 0.01255317, 1
VIBE, 50734626, 1, 0.005431481, 0.005728328, 0.01029365, 1
SIM2, 50734626, -0.314058851713425, -0.000564055526925099, -0.859832466948347, 5.833181E-06, -8.971353E-09, -2.242622E-06, 0, 0.999001, 0
FILE, @SYS/uarts.txt, 448, 64, =     0 not connected (tcp:5)\nSERIAL6 TX=       0 RX=       0 TX
IMU, 50754626, 0, 0.0007937291, 0.0007129484, 0.0007254885, 9.216694, -0.0647261, -3.356046, 0, 0, 28.11213, 1, 1, 999, 999
IMU, 50754626, 1, 0.0006626774, 0.0007622878, 0.0008020035, 9.216608, -0.06578442, -3.35584, 0, 0, 28.11213, 1, 1, 760, 799
ATT, 50754626, 1.51, 1.511023, 70.11, 70.11961, 0, 359.9014, 0
PIDR, 50754626, 0, 0.03629703, -0.0006335027, -0.01088911, 0, -0.001603801, 0, 0, 1, 0.09989623, 9
PIDP, 50754626, 0, 0.02254447, -0.0003934752, -0.00338167, 0, 0.0006482508, 0, 0, 1, 0.09568689, 9
PIDY, 50754626, 0, 0.01669465, -0.0002913767, -0.0006677861, 0, 0, 0, 0, 1, 0.004914666, 9
SIM, 50754626, 0.39, -19.99, 178.95, 584.85, -35.3632649, 149.1652374, 0.008404892, 0.1736616, 0.001825524, 0.9847678
SIM2, 50754626, -0.314058851713425, -0.000564055526925099, -0.859832466948347, 5.833181E-06, -8.971353E-09, -2.242622E-06, 0, 0.999001, 0
FILE, @SYS/uarts.txt, 512, 64, BD=     0 RXBD=     0 not connected (tcp:6)\nSERIAL7 TX=       0 
FILE, @SYS/uarts.txt, 576, 64, RX=       0 TXBD=     0 RXBD=     0 not connected (tcp:7)\nSERIAL
DCM, 50774626, 1.511162, 70.11961, 359.9011, 0.003042214, 1, 0, 0, 0
EAHR, 50774626, 0, 0, 0, 0, 0, 0, 0, 0, 0, 0
IMU, 50774626, 0, 0.0007192969, 0.0007705722, 0.0007610661, 9.217208, -0.06521919, -3.355208, 0, 0, 28.11325, 1, 1, 999, 999
IMU, 50774626, 1, 0.0006633671, 0.0007097219, 0.0008375643, 9.218605, -0.06450155, -3.358091, 0, 0, 28.11325, 1, 1, 760, 799
ATT, 50774626, 1.51, 1.511162, 70.11, 70.11961, 0, 359.9011, 0
PIDR, 50774626, 0, 0.03203238, -0.0005590705, -0.009609714, 0, 0.001595225, 0, 0, 1, 0.1005865, 9
PIDP, 50774626, 0, 0.02584607, -0.000451099, -0.003876911, 0, -0.0004626309, 0, 0, 1, 0.09377316, 9
PIDY, 50774626, 0, 0.0187331, -0.0003269542, -0.0007493239, 0, 0, 0, 0, 1, 0.004864917, 9
SIM, 50774626, 0.39, -19.99, 178.95, 584.85, -35.3632649, 149.1652374, 0.008404892, 0.1736616, 0.001825524, 0.9847678
CTUN, 50774626, 1.51, 1.51, 70.11, 70.11, 50, 0, 0, 0, 2, 0, 1.000008, 0
VIBE, 50774626, 0, 0.002738677, 0.002959979, 0.009975189, 1
VIBE, 50774626, 1, 0.005365146, 0.005755285, 0.008723279, 1
SIM2, 50774626, -0.314058851713425, -0.000564055526925099, -0.859832466948347, 5.833181E-06, -8.971353E-09, -2.242622E-06, 0, 0.9081827, 0
FILE, @SYS/uarts.txt, 640, 64, 8 TX=       0 RX=       0 TXBD=     0 RXBD=     0 not connected 
FILE, @SYS/uarts.txt, 704, 8, (tcp:8)\n
IMU, 50794626, 0, 0.0007456216, 0.00079521, 0.000814475, 9.217556, -0.06528065, -3.355345, 0, 0, 28.11438, 1, 1, 999, 999
IMU, 50794626, 1, 0.000512246, 0.0009269758, 0.0006659111, 9.217758, -0.06468237, -3.356909, 0, 0, 28.11438, 1, 1, 760, 799
BARO, 50794626, 0, 0.2352905, 0.2352905, 94493.27, 30.06, 0.009002687, 50794, 0, 30.04396, 1
BARO, 50794626, 1, -0.1323853, -0.1323853, 94495.98, 30.06, 0.009002687, 50794, 0, 30.04396, 1
ATT, 50794626, 1.51, 1.511479, 70.11, 70.11961, 0, 359.9009, 0
PIDR, 50794626, 0, 0.03354068, -0.0005853953, -0.0100622, 0, -0.000154295, 0, 0, 1, 0.1012492, 9
PIDP, 50794626, 0, 0.02725771, -0.0004757368, -0.004088657, 0, -0.0004927832, 0, 0, 1, 0.09189769, 9
PIDY, 50794626, 0, 0.0217932, -0.0003803631, -0.000871728, 0, 0, 0, 0, 1, 0.004816163, 9
SIM, 50794626, 0.39, -19.99, 178.95, 584.85, -35.3632649, 149.1652374, 0.008404892, 0.1736616, 0.001825524, 0.9847678
AOA, 50794626, 0, 0
STAT, 50794626, 0, 0, 1, 2, 0, 1, 0, 0
SIM2, 50794626, -0.314058851713425, -0.000564055526925099, -0.859832466948347, 5.833181E-06, -8.971353E-09, -2.242622E-06, 0, 0.999001, 0
IMU, 50814626, 0, 0.000756779, 0.0007598015, 0.0007548655, 9.217427, -0.06470869, -3.355947, 0, 0, 28.11551, 1, 1, 999, 999
IMU, 50814626, 1, 0.0005914028, 0.0007021863, 0.0008321531, 9.219095, -0.06533261, -3.356846, 0, 0, 28.11551, 1, 1, 760, 799
GPS, 50814626, 0, 6, 220511600, 2412, 10, 1.21, -35.3632649, 149.1652374, 584.85, 0, 359.9119, 0, 0, 1
GPA, 50814626, 0, 2, 0.3, 0.3, 0, 0, 1, 50778, 200, 584.85, 0, 0
ATT, 50814626, 1.51, 1.511588, 70.11, 70.11962, 0, 359.9005, 0
PIDR, 50814626, 0, 0.03417995, -0.0005965527, -0.01025399, 0, -0.0003965073, 0, 0, 1, 0.1018853, 9
PIDP, 50814626, 0, 0.02522895, -0.0004403283, -0.003784343, 0, 0.0002466162, 0, 0, 1, 0.09005973, 9
PIDY, 50814626, 0, 0.01837783, -0.0003207536, -0.000735113, 0, 0, 0, 0, 1, 0.004768385, 9
SIM, 50814626, 0.39, -19.99, 178.95, 584.85, -35.3632649, 149.1652374, 0.008404892, 0.1736616, 0.001825524, 0.9847678
CTUN, 50814626, 1.51, 1.51, 70.11, 70.11, 50, 0, 0, 0, 2, 0, 1.000011, 0
VIBE, 50814626, 0, 0.002962087, 0.002720102, 0.00798056, 1
VIBE, 50814626, 1, 0.005297847, 0.005661597, 0.007650907, 1
SIM2, 50814626, -0.314058851713425, -0.000564055526925099, -0.859832466948347, 5.833181E-06, -8.971353E-09, -2.242622E-06, 0, 0.999001, 0
IMU, 50834626, 0, 0.0006891147, 0.000766664, 0.0007403554, 9.21673, -0.06485697, -3.355715, 0, 0, 28.11663, 1, 1, 999, 999
IMU, 50834626, 1, 0.0007892026, 0.0006578167, 0.000843204, 9.217356, -0.06358521, -3.355812, 0, 0, 28.11663, 1, 1, 760, 799
MAVC, 50834626, 1, 0, 255, 230, 3, 410, 0, 0, 0, 0, 0, 0, 0, 4, 1
ATT, 50834626, 1.51, 1.511598, 70.11, 70.1196, 0, 359.9001, 0
PIDR, 50834626, 0, 0.03030307, -0.0005288884, -0.009090922, 0, 0.001873413, 0, 0, 1, 0.102496, 9
PIDP, 50834626, 0, 0.02562215, -0.0004471908, -0.003843322, 0, 1.245543E-05, 0, 0, 1, 0.08825854, 9
PIDY, 50834626, 0, 0.01754646, -0.0003062435, -0.0007018584, 0, 0, 0, 0, 1, 0.004721561, 9
SIM, 50834626, 0.39, -19.99, 178.95, 584.85, -35.3632649, 149.1652374, 0.008404892, 0.1736616, 0.001825524, 0.9847678
SIM2, 50834626, -0.314058851713425, -0.000564055526925099, -0.859832466948347, 5.833181E-06, -8.971353E-09, -2.242622E-06, 0, 0.999001, 0
IMU, 50854626, 0, 0.0007024013, 0.0007420319, 0.0007275492, 9.216506, -0.06369803, -3.356179, 0, 0, 28.11776, 1, 1, 999, 999
IMU, 50854626, 1, 0.0008428646, 0.0008643032, 0.0006601874, 9.217861, -0.06467673, -3.357292, 0, 0, 28.11776, 1, 1, 760, 799
ATT, 50854626, 1.51, 1.511635, 70.11, 70.11959, 0, 359.8996, 0
PIDR, 50854626, 0, 0.03106433, -0.0005421749, -0.0093193, 0, 0.0003480801, 0, 0, 1, 0.1030361, 9
PIDP, 50854626, 0, 0.02421083, -0.0004225587, -0.003631624, 0, 0.0003132143, 0, 0, 1, 0.08649337, 9
PIDY, 50854626, 0, 0.01681272, -0.0002934373, -0.0006725088, 0, 0, 0, 0, 1, 0.004675675, 9
SIM, 50854626, 0.39, -19.99, 178.95, 584.85, -35.3632649, 149.1652374, 0.008404892, 0.1736616, 0.001825524, 0.9847678
CTUN, 50854626, 1.51, 1.51, 70.11, 70.11, 50, 0, 0, 0, 2, 0, 1.000011, 0
VIBE, 50854626, 0, 0.002777617, 0.002540877, 0.006380948, 1
VIBE, 50854626, 1, 0.005731864, 0.005646592, 0.0071093, 1
SIM2, 50854626, -0.314058851713425, -0.000564055526925099, -0.859832466948347, 5.833181E-06, -8.971353E-09, -2.242622E-06, 0, 0.9081827, 0
FILE, @SYS/storage.bin, 0, 64, PA\x06\x00\x00\x02\x00\x00\r\x00\x01??\x03\x08\x00?\x01\x13\x00\x00!?\x07\x00\x04\x01*\x00!C\x08\x00\x04\x02*\x00!?\x07\x00\x0C\x01*\x00!?\x08\x00\x0C\x02*\x00?D\x01\x00\x00\x00\x00\x00n\x02
DCM, 50874626, 1.511792, 70.1196, 359.8993, 0.003042214, 1, 0, 0, 0
EAHR, 50874626, 0, 0, 0, 0, 0, 0, 0, 0, 0, 0
IMU, 50874626, 0, 0.0007633709, 0.0007605616, 0.000744044, 9.216676, -0.06561136, -3.355642, 0, 0, 28.11889, 1, 1, 999, 999
IMU, 50874626, 1, 0.0007699236, 0.0006791166, 0.0008196564, 9.216234, -0.06603949, -3.355366, 0, 0, 28.11889, 1, 1, 760, 799
ATT, 50874626, 1.51, 1.511792, 70.11, 70.1196, 0, 359.8993, 0
PIDR, 50874626, 0, 0.03455763, -0.0006031445, -0.01036729, 0, -0.001691725, 0, 0, 1, 0.1035092, 9
PIDP, 50874626, 0, 0.0252725, -0.0004410883, -0.003790875, 0, -0.0001069932, 0, 0, 1, 0.08476351, 9
PIDY, 50874626, 0, 0.0177578, -0.0003099321, -0.000710312, 0, 0, 0, 0, 1, 0.004630706, 9
SIM, 50874626, 0.39, -19.99, 178.95, 584.85, -35.3632649, 149.1652374, 0.008404892, 0.1736616, 0.001825524, 0.9847678
SIM2, 50874626, -0.314058851713425, -0.000564055526925099, -0.859832466948347, 5.833181E-06, -8.971353E-09, -2.242622E-06, 0, 0.999001, 0
FILE, @SYS/storage.bin, 64, 64, \x04\x00nB\x00\x00\x04\x00n?\x00\x00\x04\x00??\x00\x00???G?D\x02\x00\x01??Gn\x02\x01\x00\x04\x00nB\x01\x00\x04\x00n?\x00\x00\x04\x00n?\x01\x00\x04\x00n?\x01\x00\x04\x00\x01?&
FILE, @SYS/storage.bin, 128, 64, P\x03\x00\x00\x01?\x16\x00?\x00\x00\x00d\x01\x00\x00\x01???
IMU, 50894626, 0, 0.0007325293, 0.0007962717, 0.0007419706, 9.216497, -0.06506049, -3.356266, 0, 0, 28.12001, 1, 1, 999, 999
IMU, 50894626, 1, 0.0005779651, 0.0006276756, 0.0007242756, 9.214261, -0.06612439, -3.358327, 0, 0, 28.12001, 1, 1, 760, 799
BARO, 50894626, 0, 0.1999512, 0.1999512, 94493.68, 30.06, 0.2049637, 50894, 0, 30.04396, 1
BARO, 50894626, 1, 0.1382446, 0.1382446, 94492.91, 30.06, 0.2049637, 50894, 0, 30.04396, 1
ATT, 50894626, 1.51, 1.511895, 70.11, 70.11964, 0, 359.8989, 0
PIDR, 50894626, 0, 0.03279054, -0.000572303, -0.009837163, 0, 0.0002514273, 0, 0, 1, 0.1039191, 9
PIDP, 50894626, 0, 0.02731854, -0.0004767985, -0.004097781, 0, -0.0004895395, 0, 0, 1, 0.08306824, 9
PIDY, 50894626, 0, 0.01763901, -0.0003078587, -0.0007055603, 0, 0, 0, 0, 1, 0.004586637, 9
SIM, 50894626, 0.39, -19.99, 178.95, 584.85, -35.3632649, 149.1652374, 0.008404892, 0.1736616, 0.001825524, 0.9847678
AOA, 50894626, 0, 0
CTUN, 50894626, 1.51, 1.51, 70.11, 70.11, 50, 0, 0, 0, 2, 0, 1.000011, 0
VIBE, 50894626, 0, 0.002920681, 0.00259164, 0.005258389, 1
VIBE, 50894626, 1, 0.005312795, 0.005595556, 0.006730064, 1
STAT, 50894626, 0, 0, 1, 2, 0, 1, 0, 0
SIM2, 50894626, -0.314058851713425, -0.000564055526925099, -0.859832466948347, 5.833181E-06, -8.971353E-09, -2.242622E-06, 0, 0.999001, 0
IMU, 50914626, 0, 0.000770913, 0.0007950183, 0.0006973867, 9.217157, -0.06517811, -3.355511, 0, 0, 28.12113, 1, 1, 999, 999
IMU, 50914626, 1, 0.0005839776, 0.0009243661, 0.0009011193, 9.217093, -0.06602526, -3.355342, 0, 0, 28.12113, 1, 1, 760, 799
ATT, 50914626, 1.51, 1.511835, 70.11, 70.11964, 0, 359.8983, 0
PIDR, 50914626, 0, 0.03498976, -0.0006106866, -0.01049693, 0, -0.001052156, 0, 0, 1, 0.104269, 9
PIDP, 50914626, 0, 0.02724673, -0.0004755451, -0.004087009, 0, -0.0001795098, 0, 0, 1, 0.08140688, 9
PIDY, 50914626, 0, 0.01508453, -0.0002632748, -0.0006033814, 0, 0, 0, 0, 1, 0.004494904, 9
SIM, 50914626, 0.39, -19.99, 178.95, 584.85, -35.3632649, 149.1652374, 0.008404892, 0.1736616, 0.001825524, 0.9847678
SIM2, 50914626, -0.314058851713425, -0.000564055526925099, -0.859832466948347, 5.833181E-06, -8.971353E-09, -2.242622E-06, 0, 0.999001, 0
IMU, 50934626, 0, 0.0007913026, 0.0007347927, 0.0007321416, 9.216166, -0.06529983, -3.356124, 0, 0, 28.12226, 1, 1, 999, 999
IMU, 50934626, 1, 0.0007244609, 0.0007023247, 0.0008986854, 9.215931, -0.06717975, -3.354236, 0, 0, 28.12226, 1, 1, 760, 799
MAV, 50934626, 0, 5386, 1482, 0, 6, 0, 0
MAV, 50934626, 1, 0, 0, 0, 4, 0, 4541
ATT, 50934626, 1.51, 1.511904, 70.11, 70.11959, 0, 359.8978, 0
PIDR, 50934626, 0, 0.03615801, -0.0006310763, -0.0108474, 0, -0.001031693, 0, 0, 1, 0.1045624, 9
PIDP, 50934626, 0, 0.02379605, -0.0004153195, -0.003569408, 0, 0.0006820912, 0, 0, 1, 0.07977875, 9
PIDY, 50934626, 0, 0.01707585, -0.0002980297, -0.0006830338, 0, 0, 0, 0, 1, 0.004405006, 9
SIM, 50934626, 0.39, -19.99, 178.95, 584.85, -35.3632649, 149.1652374, 0.008404892, 0.1736616, 0.001825524, 0.9847678
CTUN, 50934626, 1.51, 1.51, 70.11, 70.11, 50, 0, 0, 0, 2, 0, 1.00001, 0
VIBE, 50934626, 0, 0.00291987, 0.002430984, 0.004469766, 1
VIBE, 50934626, 1, 0.005364068, 0.005462524, 0.006353138, 1
SIM2, 50934626, -0.314058851713425, -0.000564055526925099, -0.859832466948347, 5.833181E-06, -8.971353E-09, -2.242622E-06, 0, 0.999001, 0
IMU, 50954626, 0, 0.000756618, 0.0007147859, 0.0006693916, 9.216797, -0.06515169, -3.356145, 0, 0, 28.12338, 1, 1, 999, 999
IMU, 50954626, 1, 0.0006686705, 0.0006711625, 0.0008209799, 9.217729, -0.06367451, -3.354395, 0, 0, 28.12338, 1, 1, 760, 799
ATT, 50954626, 1.51, 1.511691, 70.11, 70.11951, 0, 359.897, 0
PIDR, 50954626, 0, 0.03417072, -0.0005963916, -0.01025122, 0, 0.0006299844, 0, 0, 1, 0.1048022, 9
PIDP, 50954626, 0, 0.02264975, -0.0003953127, -0.003397462, 0, 0.000522336, 0, 0, 1, 0.07818317, 9
PIDY, 50954626, 0, 0.01348053, -0.0002352797, -0.0005392214, 0, 0, 0, 0, 1, 0.004316906, 9
SIM, 50954626, 0.39, -19.99, 178.95, 584.85, -35.3632649, 149.1652374, 0.008404892, 0.1736616, 0.001825524, 0.9847678
SIM2, 50954626, -0.314058851713425, -0.000564055526925099, -0.859832466948347, 5.833181E-06, -8.971353E-09, -2.242622E-06, 0, 0.999001, 0
DCM, 50974626, 1.511755, 70.1195, 359.8965, 0.00308915, 1, 0, 0, 0
EAHR, 50974626, 0, 0, 0, 0, 0, 0, 0, 0, 0, 0
IMU, 50974626, 0, 0.0007663175, 0.0007461759, 0.0007225344, 9.216931, -0.06571548, -3.355848, 0, 0, 28.12451, 1, 1, 999, 999
IMU, 50974626, 1, 0.0007600314, 0.00079328, 0.0007114576, 9.218058, -0.06354829, -3.355749, 0, 0, 28.12451, 1, 1, 760, 799
ATT, 50974626, 1.51, 1.511755, 70.11, 70.1195, 0, 359.8965, 0
PIDR, 50974626, 0, 0.03472647, -0.0006060912, -0.01041794, 0, -4.002159E-05, 0, 0, 1, 0.1049915, 9
PIDP, 50974626, 0, 0.02444826, -0.0004267027, -0.00366724, 0, -0.0001845459, 0, 0, 1, 0.07661951, 9
PIDY, 50974626, 0, 0.01652539, -0.0002884225, -0.0006610157, 0, 0, 0, 0, 1, 0.004230568, 9
SIM, 50974626, 0.39, -19.99, 178.95, 584.85, -35.3632649, 149.1652374, 0.008404892, 0.1736616, 0.001825524, 0.9847678
CTUN, 50974626, 1.51, 1.51, 70.11, 70.11, 50, 0, 0, 0, 2, 0, 1.00001, 0
VIBE, 50974626, 0, 0.00274551, 0.002528427, 0.003809257, 1
VIBE, 50974626, 1, 0.005484979, 0.005615437, 0.006024979, 1
SIM2, 50974626, -0.314058851713425, -0.000564055526925099, -0.859832466948347, 5.833181E-06, -8.971353E-09, -2.242622E-06, 0, 0.999001, 0
IMU, 50994626, 0, 0.000693563, 0.0007391288, 0.0007683872, 9.21757, -0.06627277, -3.355901, 0, 0, 28.12564, 1, 1, 999, 999
IMU, 50994626, 1, 0.0006548999, 0.0006992965, 0.0007732132, 9.220647, -0.0634762, -3.356289, 0, 0, 28.12564, 1, 1, 760, 799
BARO, 50994626, 0, 0, 0, 94495.95, 30.07, 0.3787041, 50994, 0, 30.04396, 1
BARO, 50994626, 1, -0.08532715, -0.08532715, 94495.45, 30.07, 0.3787041, 50994, 0, 30.04396, 1
ATT, 50994626, 1.51, 1.511845, 70.11, 70.11945, 0, 359.8962, 0
PIDR, 50994626, 0, 0.03055794, -0.0005333367, -0.009167382, 0, 0.002168381, 0, 0, 1, 0.1050856, 9
PIDP, 50994626, 0, 0.02404449, -0.0004196556, -0.003606674, 0, 1.460438E-05, 0, 0, 1, 0.07508712, 9
PIDY, 50994626, 0, 0.01915257, -0.0003342754, -0.0007661026, 0, 0, 0, 0, 1, 0.004145957, 9
SIM, 50994626, 0.39, -19.99, 178.95, 584.85, -35.3632649, 149.1652374, 0.008404892, 0.1736616, 0.001825524, 0.9847678
AOA, 50994626, 0, 0
STAT, 50994626, 0, 0, 1, 2, 0, 1, 0, 0
SIM2, 50994626, -0.314058851713425, -0.000564055526925099, -0.859832466948347, 5.833181E-06, -8.971353E-09, -2.242622E-06, 0, 0.9081827, 0
IMU, 51014626, 0, 0.0007335769, 0.0006978897, 0.0007567856, 9.217382, -0.06533395, -3.356641, 0, 0, 28.12676, 1, 1, 999, 999
IMU, 51014626, 1, 0.0007870449, 0.0006880558, 0.0008179752, 9.215725, -0.06459732, -3.35648, 0, 0, 28.12676, 1, 1, 760, 799
GPS, 51014626, 0, 6, 220511800, 2412, 10, 1.21, -35.3632649, 149.1652374, 584.85, 0, 359.9119, 0, 0, 1
GPA, 51014626, 0, 2, 0.3, 0.3, 0, 0, 1, 50978, 200, 584.85, 0, 0
ATT, 51014626, 1.51, 1.511863, 70.11, 70.11937, 0, 359.8957, 0
PIDR, 51014626, 0, 0.03285057, -0.0005733506, -0.009855171, 0, -0.0003367555, 0, 0, 1, 0.10509, 9
PIDP, 51014626, 0, 0.02168167, -0.0003784165, -0.00325225, 0, 0.0005218912, 0, 0, 1, 0.07358538, 9
PIDY, 51014626, 0, 0.01848784, -0.0003226738, -0.0007395137, 0, 0, 0, 0, 1, 0.004063037, 9
SIM, 51014626, 0.39, -19.99, 178.95, 584.85, -35.3632649, 149.1652374, 0.008404892, 0.1736616, 0.001825524, 0.9847678
CTUN, 51014626, 1.51, 1.51, 70.11, 70.11, 50, 0, 0, 0, 2, 0, 1, 0
VIBE, 51014626, 0, 0.002729213, 0.002700831, 0.003457532, 1
VIBE, 51014626, 1, 0.00572718, 0.005365024, 0.005611547, 1
SIM2, 51014626, -0.314058851713425, -0.000564055526925099, -0.859832466948347, 5.833181E-06, -8.971353E-09, -2.242622E-06, 0, 0.9081827, 0
IMU, 51034626, 0, 0.0007594766, 0.0007613587, 0.0006694075, 9.216208, -0.06559898, -3.356571, 0, 0, 28.12788, 1, 1, 999, 999
IMU, 51034626, 1, 0.0009073716, 0.0007225694, 0.0006967885, 9.21846, -0.06658327, -3.35676, 0, 0, 28.12788, 1, 1, 760, 799
ATT, 51034626, 1.51, 1.511693, 70.11, 70.11937, 0, 359.895, 0
PIDR, 51034626, 0, 0.03433451, -0.0005992502, -0.01030035, 0, -0.0009118686, 0, 0, 1, 0.1030929, 9
PIDP, 51034626, 0, 0.02531817, -0.0004418855, -0.003797726, 0, -0.0005861608, 0, 0, 1, 0.07211368, 9
PIDY, 51034626, 0, 0.01348145, -0.0002352957, -0.0005392579, 0, 0, 0, 0, 1, 0.003981777, 9
SIM, 51034626, 0.39, -19.99, 178.95, 584.85, -35.3632649, 149.1652374, 0.008404892, 0.1736616, 0.001825524, 0.9847678
SIM2, 51034626, -0.314058851713425, -0.000564055526925099, -0.859832466948347, 5.833181E-06, -8.971353E-09, -2.242622E-06, 0, 0.9157509, 0
IMU, 51054626, 0, 0.0007467588, 0.0007500818, 0.0007751517, 9.216991, -0.06535663, -3.355304, 0, 0, 28.12901, 1, 1, 999, 999
IMU, 51054626, 1, 0.000805938, 0.000848153, 0.0007533254, 9.216129, -0.06419272, -3.354004, 0, 0, 28.12901, 1, 1, 760, 799
ATT, 51054626, 1.51, 1.5119, 70.11, 70.11932, 0, 359.8947, 0
PIDR, 51054626, 0, 0.03360583, -0.0005865324, -0.01008175, 0, 1.824207E-05, 0, 0, 1, 0.1010311, 9
PIDP, 51054626, 0, 0.02467206, -0.0004306086, -0.003700808, 0, -9.260048E-05, 0, 0, 1, 0.0706714, 9
PIDY, 51054626, 0, 0.01954014, -0.0003410398, -0.0007816055, 0, 0, 0, 0, 1, 0.004014714, 9
SIM, 51054626, 0.39, -19.99, 178.95, 584.85, -35.3632649, 149.1652374, 0.008404892, 0.1736616, 0.001825524, 0.9847678
CTUN, 51054626, 1.51, 1.51, 70.11, 70.11, 50, 0, 0, 0, 2, 0, 1, 0
VIBE, 51054626, 0, 0.002843793, 0.002700895, 0.003214848, 1
VIBE, 51054626, 1, 0.005580853, 0.005435253, 0.005839389, 1
SIM2, 51054626, -0.314058851713425, -0.000564055526925099, -0.859832466948347, 5.833181E-06, -8.971353E-09, -2.242622E-06, 0, 0.999001, 0
DCM, 51074626, 1.511932, 70.11927, 359.8943, 0.00308915, 1, 0, 0, 0
EAHR, 51074626, 0, 0, 0, 0, 0, 0, 0, 0, 0, 0
IMU, 51074626, 0, 0.0006968703, 0.0007387782, 0.0007739835, 9.215913, -0.06498133, -3.355881, 0, 0, 28.13013, 1, 1, 999, 999
IMU, 51074626, 1, 0.0008276258, 0.0008311704, 0.0006801388, 9.215051, -0.06498187, -3.354147, 0, 0, 28.13013, 1, 1, 760, 799
ATT, 51074626, 1.51, 1.511932, 70.11, 70.11927, 0, 359.8943, 0
PIDR, 51074626, 0, 0.03074743, -0.0005366439, -0.009224229, 0, 0.001505096, 0, 0, 1, 0.09901047, 9
PIDP, 51074626, 0, 0.0240244, -0.0004193049, -0.003603661, 0, 0.0001045325, 0, 0, 1, 0.06925797, 9
PIDY, 51074626, 0, 0.01947321, -0.0003398717, -0.0007789285, 0, 0, 0, 0, 1, 0.004088563, 9
SIM, 51074626, 0.39, -19.99, 178.95, 584.85, -35.3632649, 149.1652374, 0.008404892, 0.1736616, 0.001825524, 0.9847678
SIM2, 51074626, -0.314058851713425, -0.000564055526925099, -0.859832466948347, 5.833181E-06, -8.971353E-09, -2.242622E-06, 0, 0.999001, 0
IMU, 51094626, 0, 0.0006497568, 0.0007065907, 0.0006777679, 9.217734, -0.06449695, -3.355566, 0, 0, 28.13126, 1, 1, 999, 999
IMU, 51094626, 1, 0.0005238443, 0.0006666096, 0.0008223425, 9.216659, -0.06561834, -3.353307, 0, 0, 28.13126, 1, 1, 760, 799
BARO, 51094626, 0, 0.2029419, 0.2029419, 94493.65, 30.07, 0.08268356, 51094, 0, 30.04396, 1
BARO, 51094626, 1, 0.1617432, 0.1617432, 94492.64, 30.07, 0.08268356, 51094, 0, 30.04396, 1
ATT, 51094626, 1.51, 1.511665, 70.11, 70.11923, 0, 359.8936, 0
PIDR, 51094626, 0, 0.02804802, -0.0004895304, -0.008414407, 0, 0.002014634, 0, 0, 1, 0.09703026, 9
PIDP, 51094626, 0, 0.0221802, -0.0003871175, -0.00332703, 0, 0.0004444755, 0, 0, 1, 0.06787282, 9
PIDY, 51094626, 0, 0.01396046, -0.000243656, -0.0005584185, 0, 0, 0, 0, 1, 0.004159458, 9
SIM, 51094626, 0.39, -19.99, 178.95, 584.85, -35.3632649, 149.1652374, 0.008404892, 0.1736616, 0.001825524, 0.9847678
AOA, 51094626, 0, 0
CTUN, 51094626, 1.51, 1.51, 70.11, 70.11, 50, 0, 0, 0, 2, 0, 1, 0
VIBE, 51094626, 0, 0.002880766, 0.003024084, 0.002962086, 1
VIBE, 51094626, 1, 0.005651416, 0.005577018, 0.005581087, 1
STAT, 51094626, 0, 0, 1, 2, 0, 1, 0, 0
SIM2, 51094626, -0.314058851713425, -0.000564055526925099, -0.859832466948347, 5.833181E-06, -8.971353E-09, -2.242622E-06, 0, 0.999001, 0
IMU, 51114626, 0, 0.0007548532, 0.0007563508, 0.0007591437, 9.216148, -0.0639064, -3.356071, 0, 0, 28.13238, 1, 1, 999, 999
IMU, 51114626, 1, 0.0007886931, 0.0008638666, 0.000836, 9.215375, -0.06489424, -3.356265, 0, 0, 28.13238, 1, 1, 760, 799
ATT, 51114626, 1.51, 1.511785, 70.11, 70.11921, 0, 359.8932, 0
PIDR, 51114626, 0, 0.03406961, -0.0005946269, -0.01022088, 0, -0.002352058, 0, 0, 1, 0.09508966, 9
PIDP, 51114626, 0, 0.02503124, -0.0004368775, -0.003754686, 0, -0.0004454741, 0, 0, 1, 0.06651536, 9
PIDY, 51114626, 0, 0.01862295, -0.0003250318, -0.000744918, 0, 0, 0, 0, 1, 0.004233805, 9
SIM, 51114626, 0.39, -19.99, 178.95, 584.85, -35.3632649, 149.1652374, 0.008404892, 0.1736616, 0.001825524, 0.9847678
SIM2, 51114626, -0.314058851713425, -0.000564055526925099, -0.859832466948347, 5.833181E-06, -8.971353E-09, -2.242622E-06, 0, 0.999001, 0
IMU, 51134626, 0, 0.0007362062, 0.0007159895, 0.0008091117, 9.216608, -0.0646136, -3.355779, 0, 0, 28.13351, 1, 1, 999, 999
IMU, 51134626, 1, 0.0007065712, 0.0007529524, 0.0006846041, 9.217302, -0.06437081, -3.355259, 0, 0, 28.13351, 1, 1, 760, 799
ATT, 51134626, 1.51, 1.512083, 70.11, 70.11912, 0, 359.893, 0
PIDR, 51134626, 0, 0.03300121, -0.0005759798, -0.009900364, 0, -0.0003779878, 0, 0, 1, 0.096707, 9
PIDP, 51134626, 0, 0.02271871, -0.0003965163, -0.003407806, 0, 0.000327459, 0, 0, 1, 0.06518506, 9
PIDY, 51134626, 0, 0.02148591, -0.0003749998, -0.0008594363, 0, 0, 0, 0, 1, 0.004305179, 9
SIM, 51134626, 0.39, -19.99, 178.95, 584.85, -35.3632649, 149.1652374, 0.008404892, 0.1736616, 0.001825524, 0.9847678
CTUN, 51134626, 1.51, 1.51, 70.11, 70.11, 50, 0, 0, 0, 2, 0, 1.00001, 0
VIBE, 51134626, 0, 0.002868552, 0.002797144, 0.002943692, 1
VIBE, 51134626, 1, 0.005713273, 0.005341183, 0.005492196, 1
SIM2, 51134626, -0.314058851713425, -0.000564055526925099, -0.859832466948347, 5.833181E-06, -8.971353E-09, -2.242622E-06, 0, 0.999001, 0
IMU, 51154626, 0, 0.0007005489, 0.0007239761, 0.0007845531, 9.216873, -0.06417221, -3.356112, 0, 0, 28.13463, 1, 1, 999, 999
IMU, 51154626, 1, 0.000781992, 0.0006711886, 0.0007922495, 9.21524, -0.06474924, -3.355607, 0, 0, 28.13463, 1, 1, 760, 799
ATT, 51154626, 1.51, 1.512228, 70.11, 70.11906, 0, 359.8927, 0
PIDR, 51154626, 0, 0.0309582, -0.0005403226, -0.009287462, 0, 0.0009198349, 0, 0, 1, 0.09821923, 9
PIDP, 51154626, 0, 0.02317631, -0.0004045029, -0.003476446, 0, 3.062275E-05, 0, 0, 1, 0.06388135, 9
PIDY, 51154626, 0, 0.0200788, -0.0003504412, -0.000803152, 0, 0, 0, 0, 1, 0.004373697, 9
SIM, 51154626, 0.39, -19.99, 178.95, 584.85, -35.3632649, 149.1652374, 0.008404892, 0.1736616, 0.001825524, 0.9847678
SIM2, 51154626, -0.314058851713425, -0.000564055526925099, -0.859832466948347, 5.833181E-06, -8.971353E-09, -2.242622E-06, 0, 0.999001, 0
DCM, 51174626, 1.512389, 70.11903, 359.8924, 0.003130994, 1, 0, 0, 0
EAHR, 51174626, 0, 0, 0, 0, 0, 0, 0, 0, 0, 0
IMU, 51174626, 0, 0.0007126087, 0.0007357729, 0.0007712415, 9.217245, -0.06590612, -3.35553, 0, 0, 28.13576, 1, 1, 999, 999
IMU, 51174626, 1, 0.0008400517, 0.0004218608, 0.0006017901, 9.217195, -0.06723844, -3.355347, 0, 0, 28.13576, 1, 1, 760, 799
ATT, 51174626, 1.51, 1.512389, 70.11, 70.11903, 0, 359.8924, 0
PIDR, 51174626, 0, 0.03164917, -0.0005523823, -0.009494753, 0, 4.69257E-06, 0, 0, 1, 0.09963136, 9
PIDP, 51174626, 0, 0.02385222, -0.0004162997, -0.003577833, 0, -0.0001354159, 0, 0, 1, 0.06260373, 9
PIDY, 51174626, 0, 0.0193161, -0.0003371296, -0.0007726442, 0, 0, 0, 0, 1, 0.004439475, 9
SIM, 51174626, 0.39, -19.99, 178.95, 584.85, -35.3632649, 149.1652374, 0.008404892, 0.1736616, 0.001825524, 0.9847678
CTUN, 51174626, 1.51, 1.51, 70.11, 70.11, 50, 0, 0, 0, 2, 0, 1.00001, 0
VIBE, 51174626, 0, 0.002728986, 0.002854767, 0.002840721, 1
VIBE, 51174626, 1, 0.00566076, 0.005065619, 0.005469743, 1
SIM2, 51174626, -0.314058851713425, -0.000564055526925099, -0.859832466948347, 5.833181E-06, -8.971353E-09, -2.242622E-06, 0, 0.999001, 0
IMU, 51194626, 0, 0.0007316537, 0.0007679529, 0.0007349736, 9.216624, -0.06449652, -3.355683, 0, 0, 28.13688, 1, 1, 999, 999
IMU, 51194626, 1, 0.000543448, 0.0006793226, 0.000962202, 9.21694, -0.06757484, -3.353631, 0, 0, 28.13688, 1, 1, 760, 799
BARO, 51194626, 0, -0.008850098, -0.008850098, 94496.05, 30.07, -0.3170967, 51194, 0, 30.04396, 1
BARO, 51194626, 1, -0.1323853, -0.1323853, 94495.98, 30.07, -0.3170967, 51194, 0, 30.04396, 1
ATT, 51194626, 1.51, 1.51239, 70.11, 70.11899, 0, 359.8919, 0
PIDR, 51194626, 0, 0.03274038, -0.0005714274, -0.009822113, 0, -0.0005699268, 0, 0, 1, 0.1009482, 9
PIDP, 51194626, 0, 0.02569599, -0.0004484797, -0.003854399, 0, -0.0004566964, 0, 0, 1, 0.06135166, 9
PIDY, 51194626, 0, 0.01723811, -0.0003008617, -0.0006895242, 0, 0, 0, 0, 1, 0.004502621, 9
SIM, 51194626, 0.39, -19.99, 178.95, 584.85, -35.3632649, 149.1652374, 0.008404892, 0.1736616, 0.001825524, 0.9847678
AOA, 51194626, 0, 0
STAT, 51194626, 0, 0, 1, 2, 0, 1, 0, 0
SIM2, 51194626, -0.314058851713425, -0.000564055526925099, -0.859832466948347, 5.833181E-06, -8.971353E-09, -2.242622E-06, 0, 0.999001, 0
IMU, 51214626, 0, 0.0007720655, 0.0007140555, 0.0006750992, 9.218117, -0.06441204, -3.355701, 0, 0, 28.13801, 1, 1, 999, 999
IMU, 51214626, 1, 0.00084093, 0.0008132231, 0.0006773396, 9.218049, -0.06607312, -3.357191, 0, 0, 28.13801, 1, 1, 760, 799
GPS, 51214626, 0, 6, 220512000, 2412, 10, 1.21, -35.3632649, 149.1652374, 584.85, 0, 359.9119, 0, 0, 1
GPA, 51214626, 0, 2, 0.3, 0.3, 0, 0, 1, 51178, 200, 584.85, 0, 0
ATT, 51214626, 1.51, 1.51228, 70.11, 70.11892, 0, 359.8912, 0
PIDR, 51214626, 0, 0.0350558, -0.0006118392, -0.01051674, 0, -0.001440547, 0, 0, 1, 0.1021743, 9
PIDP, 51214626, 0, 0.0226079, -0.0003945823, -0.003391185, 0, 0.000492377, 0, 0, 1, 0.06012462, 9
PIDY, 51214626, 0, 0.01380756, -0.0002409873, -0.0005523022, 0, 0, 0, 0, 1, 0.004563242, 9
SIM, 51214626, 0.39, -19.99, 178.95, 584.85, -35.3632649, 149.1652374, 0.008404892, 0.1736616, 0.001825524, 0.9847678
CTUN, 51214626, 1.51, 1.51, 70.11, 70.11, 50, 0, 0, 0, 2, 0, 0.9999996, 0
VIBE, 51214626, 0, 0.002728336, 0.002560437, 0.002773542, 1
VIBE, 51214626, 1, 0.005901334, 0.005175696, 0.00564954, 1
SIM2, 51214626, -0.314058851713425, -0.000564055526925099, -0.859832466948347, 5.833181E-06, -8.971353E-09, -2.242622E-06, 0, 0.999001, 0
IMU, 51234626, 0, 0.0007537174, 0.0006930409, 0.0007304029, 9.217574, -0.06432977, -3.356216, 0, 0, 28.13913, 1, 1, 999, 999
IMU, 51234626, 1, 0.0007646634, 0.0008057176, 0.0008239392, 9.216094, -0.06502726, -3.356063, 0, 0, 28.13913, 1, 1, 760, 799
ATT, 51234626, 1.51, 1.51237, 70.11, 70.11879, 0, 359.8908, 0
PIDR, 51234626, 0, 0.03400454, -0.0005934911, -0.01020136, 0, -2.351661E-05, 0, 0, 1, 0.1033141, 9
PIDP, 51234626, 0, 0.02140385, -0.0003735677, -0.003210578, 0, 0.0004593031, 0, 0, 1, 0.05892213, 9
PIDY, 51234626, 0, 0.01697622, -0.000296291, -0.0006790489, 0, 0, 0, 0, 1, 0.004621438, 9
SIM, 51234626, 0.39, -19.99, 178.95, 584.85, -35.3632649, 149.1652374, 0.008404892, 0.1736616, 0.001825524, 0.9847678
SIM2, 51234626, -0.314058851713425, -0.000564055526925099, -0.859832466948347, 5.833181E-06, -8.971353E-09, -2.242622E-06, 0, 0.999001, 0
IMU, 51254626, 0, 0.000703251, 0.000721616, 0.0007317449, 9.217619, -0.06508972, -3.356314, 0, 0, 28.14025, 1, 1, 999, 999
IMU, 51254626, 1, 0.0008571371, 0.000819476, 0.0007727889, 9.216623, -0.06453848, -3.35495, 0, 0, 28.14025, 1, 1, 760, 799
ATT, 51254626, 1.51, 1.51241, 70.11, 70.11874, 0, 359.8904, 0
PIDR, 51254626, 0, 0.03111302, -0.0005430246, -0.009333906, 0, 0.001505799, 0, 0, 1, 0.1043718, 9
PIDP, 51254626, 0, 0.02304108, -0.0004021428, -0.003456163, 0, -0.0001744528, 0, 0, 1, 0.05774369, 9
PIDY, 51254626, 0, 0.01705311, -0.000297633, -0.0006821245, 0, 0, 0, 0, 1, 0.004677306, 9
SIM, 51254626, 0.39, -19.99, 178.95, 584.85, -35.3632649, 149.1652374, 0.008404892, 0.1736616, 0.001825524, 0.9847678
CTUN, 51254626, 1.51, 1.51, 70.11, 70.11, 50, 0, 0, 0, 2, 0, 0.9999996, 0
VIBE, 51254626, 0, 0.002556876, 0.002785403, 0.002820455, 1
VIBE, 51254626, 1, 0.005645164, 0.00520161, 0.005740872, 1
SIM2, 51254626, -0.314058851713425, -0.000564055526925099, -0.859832466948347, 5.833181E-06, -8.971353E-09, -2.242622E-06, 0, 0.999001, 0
DCM, 51274626, 1.512557, 70.11868, 359.89, 0.003130994, 1, 0, 0, 0
EAHR, 51274626, 0, 0, 0, 0, 0, 0, 0, 0, 0, 0
IMU, 51274626, 0, 0.0007243264, 0.0007433533, 0.0007879509, 9.217402, -0.06556524, -3.355093, 0, 0, 28.14138, 1, 1, 999, 999
IMU, 51274626, 1, 0.0007222078, 0.0007811371, 0.0007533072, 9.218018, -0.06627463, -3.356795, 0, 0, 28.14138, 1, 1, 760, 799
ATT, 51274626, 1.51, 1.512557, 70.11, 70.11868, 0, 359.89, 0
PIDR, 51274626, 0, 0.03232055, -0.0005641, -0.009696164, 0, -3.234706E-05, 0, 0, 1, 0.1053513, 9
PIDP, 51274626, 0, 0.02428654, -0.0004238801, -0.003642981, 0, -0.0003415813, 0, 0, 1, 0.05658882, 9
PIDY, 51274626, 0, 0.02027348, -0.000353839, -0.0008109392, 0, 0, 0, 0, 1, 0.00473094, 9
SIM, 51274626, 0.39, -19.99, 178.95, 584.85, -35.3632649, 149.1652374, 0.008404892, 0.1736616, 0.001825524, 0.9847678
SIM2, 51274626, -0.314058851713425, -0.000564055526925099, -0.859832466948347, 5.833181E-06, -8.971353E-09, -2.242622E-06, 0, 0.999001, 0
IMU, 51294626, 0, 0.0007293384, 0.0007499202, 0.0007407931, 9.217832, -0.06475218, -3.354789, 0, 0, 28.1425, 1, 1, 999, 999
IMU, 51294626, 1, 0.0006256624, 0.0005702114, 0.0006267798, 9.217382, -0.06646548, -3.35635, 0, 0, 28.1425, 1, 1, 760, 799
BARO, 51294626, 0, 0.3440552, 0.3440552, 94492.05, 30.08, -0.2462959, 51294, 0, 30.04396, 1
BARO, 51294626, 1, -0.1559448, -0.1559448, 94496.25, 30.08, -0.2462959, 51294, 0, 30.04396, 1
ATT, 51294626, 1.51, 1.512602, 70.11, 70.11866, 0, 359.8896, 0
PIDR, 51294626, 0, 0.03260772, -0.000569112, -0.009782314, 0, -0.0001633758, 0, 0, 1, 0.1062566, 9
PIDP, 51294626, 0, 0.02466279, -0.000430447, -0.003699419, 0, -0.0002183768, 0, 0, 1, 0.05545704, 9
PIDY, 51294626, 0, 0.01757154, -0.0003066813, -0.0007028616, 0, 0, 0, 0, 1, 0.004782428, 9
SIM, 51294626, 0.39, -19.99, 178.95, 584.85, -35.3632649, 149.1652374, 0.008404892, 0.1736616, 0.001825524, 0.9847678
AOA, 51294626, 0, 0
CTUN, 51294626, 1.51, 1.51, 70.11, 70.11, 50, 0, 0, 0, 2, 0, 0.9999996, 0
VIBE, 51294626, 0, 0.00266483, 0.002776774, 0.002705356, 1
VIBE, 51294626, 1, 0.005467352, 0.004979034, 0.006023956, 1
STAT, 51294626, 0, 0, 1, 2, 0, 1, 0, 0
SIM2, 51294626, -0.314058851713425, -0.000564055526925099, -0.859832466948347, 5.833181E-06, -8.971353E-09, -2.242622E-06, 0, 0.999001, 0
IMU, 51314626, 0, 0.0007382493, 0.0007122635, 0.0007489282, 9.217505, -0.06556724, -3.356588, 0, 0, 28.14363, 1, 1, 999, 999
IMU, 51314626, 1, 0.0007734759, 0.0006619427, 0.0008201855, 9.214741, -0.06487338, -3.355711, 0, 0, 28.14363, 1, 1, 760, 799
ATT, 51314626, 1.51, 1.51275, 70.11, 70.11858, 0, 359.8892, 0
PIDR, 51314626, 0, 0.03311828, -0.000578023, -0.009935483, 0, -0.0003326815, 0, 0, 1, 0.1070913, 9
PIDP, 51314626, 0, 0.02250523, -0.0003927903, -0.003375784, 0, 0.0003841645, 0, 0, 1, 0.05434791, 9
PIDY, 51314626, 0, 0.01803765, -0.0003148163, -0.0007215058, 0, 0, 0, 0, 1, 0.004831857, 9
SIM, 51314626, 0.39, -19.99, 178.95, 584.85, -35.3632649, 149.1652374, 0.008404892, 0.1736616, 0.001825524, 0.9847678
SIM2, 51314626, -0.314058851713425, -0.000564055526925099, -0.859832466948347, 5.833181E-06, -8.971353E-09, -2.242622E-06, 0, 0.999001, 0
IMU, 51334626, 0, 0.0007729384, 0.000781454, 0.0008125588, 9.216817, -0.0648184, -3.355985, 0, 0, 28.14475, 1, 1, 999, 999
IMU, 51334626, 1, 0.0005882414, 0.0007370165, 0.0007630885, 9.216947, -0.06632514, -3.356929, 0, 0, 28.14475, 1, 1, 760, 799
ATT, 51334626, 1.51, 1.513038, 70.11, 70.11859, 0, 359.8889, 0
PIDR, 51334626, 0, 0.03510582, -0.0006127121, -0.01053174, 0, -0.001174134, 0, 0, 1, 0.1078589, 9
PIDP, 51334626, 0, 0.02646955, -0.0004619808, -0.003970432, 0, -0.0007126752, 0, 0, 1, 0.05326095, 9
PIDY, 51334626, 0, 0.02168341, -0.0003784469, -0.0008673364, 0, 0, 0, 0, 1, 0.004879308, 9
SIM, 51334626, 0.39, -19.99, 178.95, 584.85, -35.3632649, 149.1652374, 0.008404892, 0.1736616, 0.001825524, 0.9847678
CTUN, 51334626, 1.51, 1.51, 70.11, 70.11, 50, 0, 0, 0, 2, 0, 1.000016, 0
VIBE, 51334626, 0, 0.002703189, 0.002799454, 0.002860332, 1
VIBE, 51334626, 1, 0.005546632, 0.005284723, 0.005947655, 1
SIM2, 51334626, -0.314058851713425, -0.000564055526925099, -0.859832466948347, 5.833181E-06, -8.971353E-09, -2.242622E-06, 0, 1.089819, 0
IMU, 51354626, 0, 0.0007031225, 0.0007541254, 0.0007415043, 9.216422, -0.06443015, -3.355576, 0, 0, 28.14587, 1, 1, 999, 999
IMU, 51354626, 1, 0.0008133158, 0.0007537037, 0.0007799225, 9.218592, -0.065276, -3.356347, 0, 0, 28.14587, 1, 1, 760, 799
ATT, 51354626, 1.51, 1.513046, 70.11, 70.11855, 0, 359.8885, 0
PIDR, 51354626, 0, 0.03110565, -0.0005428961, -0.009331697, 0, 0.001627951, 0, 0, 1, 0.1085628, 9
PIDP, 51354626, 0, 0.02490374, -0.0004346522, -0.00373556, 0, 5.782614E-05, 0, 0, 1, 0.05219573, 9
PIDY, 51354626, 0, 0.01761229, -0.0003073924, -0.0007044915, 0, 0, 0, 0, 1, 0.004924861, 9
SIM, 51354626, 0.39, -19.99, 178.95, 584.85, -35.3632649, 149.1652374, 0.008404892, 0.1736616, 0.001825524, 0.9847678
SIM2, 51354626, -0.314058851713425, -0.000564055526925099, -0.859832466948347, 5.833181E-06, -8.971353E-09, -2.242622E-06, 0, 0.999001, 0
DCM, 51374626, 1.513129, 70.11833, 359.8881, 0.003154815, 1, 0, 0, 0
EAHR, 51374626, 0, 0, 0, 0, 0, 0, 0, 0, 0, 0
IMU, 51374626, 0, 0.000738963, 0.0006775024, 0.0007352656, 9.215941, -0.0647539, -3.337188, 0, 0, 28.147, 1, 1, 999, 999
IMU, 51374626, 1, 0.000797236, 0.0008218966, 0.000767075, 9.218502, -0.06456152, -3.326328, 0, 0, 28.147, 1, 1, 760, 799
ATT, 51374626, 1.51, 1.513129, 70.11, 70.11833, 0, 359.8881, 0
PIDR, 51374626, 0, 0.03315917, -0.0005787367, -0.00994775, 0, -0.0004269422, 0, 0, 1, 0.1097824, 9
PIDP, 51374626, 0, 0.02051356, -0.0003580292, -0.003077034, 0, 0.0009819219, 0, 0, 1, 0.05115182, 9
PIDY, 51374626, 0, 0.01725484, -0.0003011537, -0.0006901935, 0, 0, 0, 0, 1, 0.004968592, 9
SIM, 51374626, 0.39, -19.99, 178.95, 584.85, -35.3632649, 149.1652374, 0.008404922, 0.173664, 0.001825516, 0.9847674
CTUN, 51374626, 1.51, 1.51, 70.11, 70.11, 50, 0, 0, 0, 2, 0, 1.000016, 0
VIBE, 51374626, 0, 0.009845617, 0.004138896, 0.5363994, 1
VIBE, 51374626, 1, 0.01094873, 0.005968203, 0.5370531, 1
SIM2, 51374626, -0.314062901652039, -0.000563996572325352, -0.859830909133223, -0.004627912, 5.724487E-05, 0.001781336, 0.004959234, 0.999001, 0
IMU, 51394626, 0, 0.0007472905, 0.000610489, 0.0007476071, 9.217159, -0.06506306, -3.373434, 0, 0, 28.14812, 1, 1, 999, 999
IMU, 51394626, 1, 0.0007667143, 0.0003968185, 0.0009244697, 9.218983, -0.06623781, -3.380922, 0, 0, 28.14812, 1, 1, 760, 799
BARO, 51394626, 0, 0.1176758, 0.1176758, 94494.61, 30.08, 0.1295471, 51394, 0, 30.04396, 1
BARO, 51394626, 1, -0.04412842, -0.04412842, 94494.98, 30.08, 0.1295471, 51394, 0, 30.04396, 1
ATT, 51394626, 1.51, 1.513096, 70.11, 70.11819, 0, 359.8875, 0
PIDR, 51394626, 0, 0.0336363, -0.0005870642, -0.01009089, 0, -0.0004202555, 0, 0, 1, 0.1109532, 9
PIDP, 51394626, 0, 0.01667397, -0.0002910158, -0.002501096, 0, 0.00123013, 0, 0, 1, 0.05117046, 9
PIDY, 51394626, 0, 0.01796195, -0.0003134952, -0.0007184781, 0, 0, 0, 0, 1, 0.00500826, 9
SIM, 51394626, 0.39, -19.99, 178.95, 584.85, -35.3632649, 149.1652374, 0.008404922, 0.173664, 0.001825516, 0.9847674
AOA, 51394626, 0, 0
STAT, 51394626, 0, 0, 1, 2, 0, 0, 0, 0
SIM2, 51394626, -0.314062901652039, -0.000563996572325352, -0.859830909133223, -0.004627912, 5.724487E-05, 0.001781336, 0.004959234, 0.999001, 0
IMU, 51414626, 0, 0.0007478879, 0.0008769007, 0.0007585803, 9.217319, -0.06555881, -3.356576, 0, 0, 28.14924, 1, 1, 999, 999
IMU, 51414626, 1, 0.0005949397, 0.0007933195, 0.0008149615, 9.214709, -0.06393709, -3.357978, 0, 0, 28.14924, 1, 1, 760, 799
GPS, 51414626, 0, 6, 220512200, 2412, 10, 1.21, -35.3632649, 149.1652374, 584.85, 0.002, 179.2905, 0, 0, 1
GPA, 51414626, 0, 2, 0.3, 0.3, 0, 0, 1, 51378, 200, 584.85, 0, 0
ATT, 51414626, 1.51, 1.513283, 70.11, 70.11832, 0, 359.8872, 0
PIDR, 51414626, 0, 0.03367052, -0.0005876615, -0.01010116, 0, -0.0001855021, 0, 0, 1, 0.1120771, 9
PIDP, 51414626, 0, 0.03193824, -0.0005574275, -0.004790737, 0, -0.002843401, 0, 0, 1, 0.0511037, 9
PIDY, 51414626, 0, 0.01859067, -0.0003244684, -0.0007436268, 0, 0, 0, 0, 1, 0.005044073, 9
SIM, 51414626, 0.39, -19.99, 178.95, 584.85, -35.3632649, 149.1652374, 0.00840496, 0.1736634, 0.00182552, 0.9847676
CTUN, 51414626, 1.51, 1.51, 70.11, 70.11, 50, 0, 0, 0, 2, 0, 1.000006, 0
VIBE, 51414626, 0, 0.01123843, 0.004486672, 0.6048558, 1
VIBE, 51414626, 1, 0.01233177, 0.006511499, 0.605271, 1
SIM2, 51414626, -0.314061873596982, -0.00056399945085518, -0.859831304727897, 3.637723E-05, -5.875862E-08, -1.399786E-05, 0, 0.999001, 0
IMU, 51434626, 0, 0.0007578591, 0.0007987205, 0.0007313875, 9.216772, -0.06589148, -3.35549, 0, 0, 28.15037, 1, 1, 999, 999
IMU, 51434626, 1, 0.0007204968, 0.0008462069, 0.0007379152, 9.216958, -0.06611896, -3.354649, 0, 0, 28.15037, 1, 1, 760, 799
ATT, 51434626, 1.51, 1.513294, 70.11, 70.11833, 0, 359.8867, 0
PIDR, 51434626, 0, 0.03424183, -0.0005976327, -0.01027255, 0, -0.0003733346, 0, 0, 1, 0.1131561, 9
PIDP, 51434626, 0, 0.02745884, -0.0004792472, -0.004118826, 0, -0.0001553964, 0, 0, 1, 0.05370788, 9
PIDY, 51434626, 0, 0.01703264, -0.0002972757, -0.0006813056, 0, 0, 0, 0, 1, 0.005073731, 9
SIM, 51434626, 0.39, -19.99, 178.95, 584.85, -35.3632649, 149.1652374, 0.008404985, 0.1736628, 0.00182552, 0.9847677
SIM2, 51434626, -0.314060857608159, -0.000564001184396531, -0.859831695658896, 2.61148E-05, -4.74727E-08, -1.004789E-05, 0, 0.999001, 0
IMU, 51454626, 0, 0.0007608363, 0.0007845573, 0.0007612195, 9.21741, -0.06517355, -3.35568, 0, 0, 28.15149, 1, 1, 999, 999
IMU, 51454626, 1, 0.000708623, 0.0007048573, 0.0008188476, 9.2168, -0.06468417, -3.356601, 0, 0, 28.15149, 1, 1, 760, 799
ATT, 51454626, 1.51, 1.513474, 70.11, 70.11834, 0, 359.8864, 0
PIDR, 51454626, 0, 0.03441241, -0.0006006099, -0.01032372, 0, -0.0002382454, 0, 0, 1, 0.1141239, 9
PIDP, 51454626, 0, 0.02664735, -0.000465084, -0.003997103, 0, 0.0001152779, 0, 0, 1, 0.05630112, 9
PIDY, 51454626, 0, 0.01874189, -0.0003271077, -0.0007496755, 0, 0, 0, 0, 1, 0.005097574, 9
SIM, 51454626, 0.39, -19.99, 178.95, 584.85, -35.3632649, 149.1652374, 0.008404985, 0.1736628, 0.00182552, 0.9847677
CTUN, 51454626, 1.51, 1.51, 70.11, 70.11, 50, 0, 0, 0, 2, 0, 1.000006, 0
VIBE, 51454626, 0, 0.00887296, 0.003960452, 0.4711781, 1
VIBE, 51454626, 1, 0.01017344, 0.006299444, 0.4717994, 1
SIM2, 51454626, -0.314060857608159, -0.000564001184396531, -0.859831695658896, 2.61148E-05, -4.74727E-08, -1.004789E-05, 0, 0.9081827, 0
DCM, 51474626, 1.51357, 70.11842, 359.886, 0.003154815, 1, 0, 0, 0
EAHR, 51474626, 0, 0, 0, 0, 0, 0, 0, 0, 0, 0
IMU, 51474626, 0, 0.000713806, 0.0008051297, 0.0007637753, 9.218128, -0.06546924, -3.354797, 0, 0, 28.15261, 1, 1, 999, 999
IMU, 51474626, 1, 0.0006355354, 0.0007923533, 0.0007788346, 9.217216, -0.06766383, -3.356747, 0, 0, 28.15261, 1, 1, 760, 799
ATT, 51474626, 1.51, 1.51357, 70.11, 70.11842, 0, 359.886, 0
PIDR, 51474626, 0, 0.03171778, -0.0005535797, -0.009515333, 0, 0.001317013, 0, 0, 1, 0.1149864, 9
PIDP, 51474626, 0, 0.02782607, -0.0004856565, -0.00417391, 0, -0.00021148, 0, 0, 1, 0.05879062, 9
PIDY, 51474626, 0, 0.01888832, -0.0003296635, -0.0007555329, 0, 0, 0, 0, 1, 0.005115927, 9
SIM, 51474626, 0.39, -19.99, 178.95, 584.85, -35.3632649, 149.1652374, 0.008404985, 0.1736628, 0.00182552, 0.9847677
SIM2, 51474626, -0.314060857608159, -0.000564001184396531, -0.859831695658896, 2.61148E-05, -4.74727E-08, -1.004789E-05, 0, 0.999001, 0
IMU, 51494626, 0, 0.0007363257, 0.0008024355, 0.0007844829, 9.216316, -0.06490789, -3.355669, 0, 0, 28.15374, 1, 1, 999, 999
IMU, 51494626, 1, 0.0008438865, 0.0008108756, 0.0006048732, 9.216663, -0.06833863, -3.35616, 0, 0, 28.15374, 1, 1, 760, 799
BARO, 51494626, 0, -0.03527832, -0.03527832, 94496.34, 30.09, 0.294075, 51494, 0, 30.04396, 1
